[{"code": "ZWL", "name": "Whitechapel", "postcode": ""}, {"latitude": 50.7257779162244, "code": "HAM", "name": "Hamworthy", "longitude": -2.01962663158797, "postcode": "BH16 5DB"}, {"latitude": 53.999220609418, "code": "SBE", "name": "Starbeck", "longitude": -1.50021184259321, "postcode": "HG1 4PY"}, {"code": "WFW", "name": "Watford West", "postcode": "WD1 8NA"}, {"latitude": 55.9153555618371, "code": "SFI", "name": "Shawfair", "longitude": -3.08842482882656, "postcode": "EH22 1SB"}, {"latitude": 51.7313293644021, "code": "APS", "name": "Apsley", "longitude": -0.460527971476737, "postcode": "HP3 9SX"}, {"latitude": 52.9360504116012, "code": "WRN", "name": "West Runton", "longitude": 1.24652396861237, "postcode": "NR27 9QJ"}, {"latitude": 51.4325610780147, "code": "SYH", "name": "Sydenham Hill", "longitude": -0.0787777654674257, "postcode": "SE21 7ND"}, {"latitude": 51.334129761334, "code": "TEY", "name": "Teynham", "longitude": 0.808059404768528, "postcode": "ME9 9EA"}, {"latitude": 52.1690296716363, "code": "BHR", "name": "Builth Road", "longitude": -3.42700911683522, "postcode": "LD2 3PY"}, {"latitude": 51.4380223277142, "code": "EBK", "name": "Eastbrook", "longitude": -3.20732785336797, "postcode": "CF64 4LD"}, {"latitude": 51.2146103652928, "code": "SFR", "name": "Shalford", "longitude": -0.566837785919973, "postcode": "GU4 8BZ"}, {"latitude": 51.3574039164608, "code": "CSB", "name": "Carshalton Beeches", "longitude": -0.169438189731072, "postcode": "SM5 3RF"}, {"code": "ALD", "name": "Alderley Edge", "postcode": "SK9 7QZ"}, {"code": "NHL", "name": "New Holland", "postcode": "DN19 7RU"}, {"latitude": 51.5486965061815, "code": "WGR", "name": "Woodgrange Park", "longitude": 0.0453931058950891, "postcode": "E12 6UL"}, {"latitude": 51.5340456453121, "code": "KNR", "name": "Kensal Rise", "longitude": -0.220322934421114, "postcode": "NW10 5RT"}, {"code": "BSO", "name": "Basildon", "postcode": "SS16 5XX"}, {"latitude": 51.22786383241, "code": "ELD", "name": "Earlswood (Surrey)", "longitude": -0.170071328580847, "postcode": "RH1 6JH"}, {"latitude": 52.9741664744671, "code": "HBB", "name": "Hubberts Bridge", "longitude": -0.111771954568454, "postcode": "PE20 3QR"}, {"latitude": 51.4631193528076, "code": "RMD", "name": "Richmond", "longitude": -0.302592705720619, "postcode": "TW9 1DL"}, {"latitude": 52.4301222298609, "code": "SPP", "name": "Shippea Hill", "longitude": 0.411089553390998, "postcode": "CB7 4SP"}, {"latitude": 51.4742757218327, "code": "QRP", "name": "Queens Road (Peckham)", "longitude": -0.0573553569377265, "postcode": "SE15 2JN"}, {"latitude": 51.5451417255608, "code": "LVT", "name": "Lisvane and Thornhill", "longitude": -3.18630910919537, "postcode": "CF14 0UE"}, {"latitude": 55.6733118979829, "code": "LNK", "name": "Lanark", "longitude": -3.77292757016692, "postcode": "ML11 7NR"}, {"code": "CCH", "name": "Chichester", "postcode": "PO19 2DL"}, {"latitude": 50.8532274978666, "code": "WLD", "name": "West St Leonards", "longitude": 0.538490059226333, "postcode": "TN38 0AB"}, {"latitude": 53.5145936932603, "code": "MSL", "name": "Mossley (Manchester)", "longitude": -2.04128178033887, "postcode": "OL5 0AB"}, {"latitude": 55.6410341052579, "code": "ASB", "name": "Ardrossan South Beach", "longitude": -4.80129617621086, "postcode": "KA22 8AG"}, {"code": "PSW", "name": "Polesworth", "postcode": "B78 1BJ"}, {"latitude": 53.7775875254064, "code": "SQU", "name": "Squires Gate", "longitude": -3.04924616195733, "postcode": "FY8 2SN"}, {"latitude": 52.1360358286681, "code": "BDM", "name": "Bedford (Midland)", "longitude": -0.478220123251312, "postcode": "MK40 1DS"}, {"latitude": 51.5216667435943, "code": "GOR", "name": "Goring & Streatley", "longitude": -1.13223900393906, "postcode": "RG8 0ES"}, {"latitude": 56.1571433770042, "code": "BEA", "name": "Bridge of Allan", "longitude": -3.95611170349722, "postcode": "FK9 4NA"}, {"latitude": 54.6447046321971, "code": "WKG", "name": "Workington", "longitude": -3.55774202113548, "postcode": "CA14 2XF"}, {"latitude": 51.7567800744568, "code": "EBV", "name": "Ebbw Vale Parkway", "longitude": -3.19681799474706, "postcode": "NP23 8AP"}, {"latitude": 51.2384640944196, "code": "DPD", "name": "Dorking Deepdene", "longitude": -0.324211398468196, "postcode": "RH4 1AH"}, {"latitude": 51.3442281835283, "code": "WSM", "name": "Weston-super-Mare", "longitude": -2.97332645699298, "postcode": "BS23 1YB"}, {"latitude": 51.5800881862956, "code": "HEN", "name": "Hendon", "longitude": -0.239510419934353, "postcode": "NW9 6AX"}, {"latitude": 56.2944601670286, "code": "SPF", "name": "Springfield", "longitude": -3.05161045494493, "postcode": "KY15 5RT"}, {"latitude": 51.9440692401398, "code": "MIS", "name": "Mistley", "longitude": 1.08067354013872, "postcode": "CO11 1HG"}, {"latitude": 53.1993772643482, "code": "HCH", "name": "Holmes Chapel", "longitude": -2.34991623586476, "postcode": "CW4 8AA"}, {"latitude": 53.5207059007263, "code": "CLI", "name": "Clifton (Manchester)", "longitude": -2.31363237046241, "postcode": "M27 8LN"}, {"latitude": 54.5332832550852, "code": "GYP", "name": "Gypsy Lane", "longitude": -1.17882795985741, "postcode": "TS7 0DY"}, {"latitude": 53.3641892889728, "code": "EDL", "name": "Edale", "longitude": -1.81589343617754, "postcode": "S33 7ZP"}, {"latitude": 52.4969614500612, "code": "SMR", "name": "Smethwick Rolfe Street", "longitude": -1.96908293871355, "postcode": "B66 2AA"}, {"code": "DVP", "name": "Dover Priory", "postcode": "CT17 9TY"}, {"latitude": 50.7388110387083, "code": "CHR", "name": "Christchurch", "longitude": -1.78571963761809, "postcode": "BH23 2AB"}, {"latitude": 55.8837344194798, "code": "EKB", "name": "Eskbank", "longitude": -3.08144866775608, "postcode": "EH22 3NX"}, {"latitude": 53.3792331226597, "code": "MSH", "name": "Mossley Hill", "longitude": -2.91496656326826, "postcode": "L18 8EE"}, {"latitude": 52.4086150817863, "code": "NFD", "name": "Northfield", "longitude": -1.96332288853713, "postcode": "B31 3UB"}, {"latitude": 53.471590980246, "code": "ABY", "name": "Ashburys", "longitude": -2.19675640957301, "postcode": "M12 5BX"}, {"latitude": 55.8210136978126, "code": "UDD", "name": "Uddingston", "longitude": -4.08263659995713, "postcode": "G71 7LR"}, {"latitude": 53.5541875836295, "code": "AUG", "name": "Aughton Park", "longitude": -2.89401235623716, "postcode": "L39 5QE"}, {"latitude": 55.858463457265, "code": "DST", "name": "Duke Street", "longitude": -4.21185134183197, "postcode": "G31 1NW"}, {"latitude": 51.62156966485, "code": "CKY", "name": "Crosskeys", "longitude": -3.12627358200671, "postcode": "NP11 7BU"}, {"latitude": 58.1188814588128, "code": "HMS", "name": "Helmsdale", "longitude": -3.65452794395774, "postcode": "KW8 6HT"}, {"latitude": 58.1545892840979, "code": "KIL", "name": "Kildonan", "longitude": -3.83141167347465, "postcode": "KW8 6HY"}, {"latitude": 51.5893422311079, "code": "RLG", "name": "Rayleigh", "longitude": 0.600087368684221, "postcode": "SS6 7HJ"}, {"latitude": 55.8121068451346, "code": "HLY", "name": "Holytown", "longitude": -3.97427249635127, "postcode": "ML1 4LU"}, {"code": "KET", "name": "Kettering", "postcode": "NN15 7JT"}, {"latitude": 57.5942983919001, "code": "DIN", "name": "Dingwall", "longitude": -4.42252166550732, "postcode": "IV15 9JD"}, {"latitude": 51.440342792153, "code": "BXY", "name": "Bexley", "longitude": 0.147937155314086, "postcode": "DA5 1AQ"}, {"latitude": 51.2185625250627, "code": "GDN", "name": "Godstone", "longitude": -0.0496668545287201, "postcode": "RH9 8EU"}, {"latitude": 51.6741369831213, "code": "LLE", "name": "Llanelli", "longitude": -4.1620402415276, "postcode": "SA15 2RN"}, {"latitude": 53.4433165413575, "code": "FLI", "name": "Flixton", "longitude": -2.38395625198237, "postcode": "M41 6JL"}, {"latitude": 51.1918750004348, "code": "TON", "name": "Tonbridge", "longitude": 0.270137216987434, "postcode": "TN9 1TX"}, {"code": "BNW", "name": "Bootle New Strand", "postcode": "L20 4BA"}, {"code": "WLF", "name": "Whittlesford Parkway", "postcode": "CB2 4PL"}, {"latitude": 50.5300064129076, "code": "NTA", "name": "Newton Abbot", "longitude": -3.59960489178599, "postcode": "TQ12 2BT"}, {"latitude": 51.9201572428376, "code": "ESM", "name": "Elsenham", "longitude": 0.227571232589165, "postcode": "CM22 6LX"}, {"latitude": 52.623839084977, "code": "BBK", "name": "Bilbrook", "longitude": -2.18449310849471, "postcode": "WV8 1HT"}, {"latitude": 51.041949043576, "code": "DEN", "name": "Dean (Hampshire)", "longitude": -1.63477138734157, "postcode": "SP5 1JF"}, {"latitude": 51.6338651875734, "code": "BUU", "name": "Burnham-on-Crouch", "longitude": 0.812378777286353, "postcode": "CM0 8DG"}, {"latitude": 55.9451970934204, "code": "HYM", "name": "Haymarket", "longitude": -3.21791833289146, "postcode": "EH11 2BD"}, {"latitude": 52.5285737786987, "code": "ERD", "name": "Erdington", "longitude": -1.83996498820527, "postcode": "B23 6PU"}, {"latitude": 52.4688165459422, "code": "OUS", "name": "Oulton Broad South", "longitude": 1.70650261975608, "postcode": "NR33 8QX"}, {"code": "SMN", "name": "Southminster", "postcode": "CM0 7EN"}, {"code": "WOL", "name": "Wolverton", "postcode": "MK12 5TR"}, {"latitude": 51.6439932042445, "code": "GPK", "name": "Grange Park", "longitude": -0.0975172243690997, "postcode": "N21 1RF"}, {"latitude": 52.1902641992166, "code": "SMK", "name": "Stowmarket", "longitude": 1.00048159396806, "postcode": "IP14 5AS"}, {"latitude": 51.3093053050805, "code": "CHP", "name": "Chipstead", "longitude": -0.169659878403975, "postcode": "CR5 3TD"}, {"latitude": 54.2427135760666, "code": "GNR", "name": "Green Road", "longitude": -3.24553205905545, "postcode": "LA18 5JD"}, {"latitude": 53.4456508675173, "code": "CSR", "name": "Chassen Road", "longitude": -2.36767170259062, "postcode": "M41 9DU"}, {"code": "BPK", "name": "Brookmans Park", "postcode": "AL9 7SS"}, {"latitude": 53.691722472589, "code": "PFR", "name": "Pontefract Baghill", "longitude": -1.30371899763666, "postcode": "WF8 1RB"}, {"latitude": 53.2606751358074, "code": "BUX", "name": "Buxton", "longitude": -1.90934083585563, "postcode": "SK17 6AQ"}, {"latitude": 55.8233308305313, "code": "PWW", "name": "Pollokshaws West", "longitude": -4.30055517817659, "postcode": "G43 1NZ"}, {"latitude": 53.4128010145348, "code": "BWD", "name": "Birchwood", "longitude": -2.52541454582628, "postcode": "WA3 7PU"}, {"latitude": 50.7694161729165, "code": "EBN", "name": "Eastbourne", "longitude": 0.281021968627017, "postcode": "BN21 3QJ"}, {"latitude": 52.4543105132257, "code": "HRD", "name": "Harling Road", "longitude": 0.909374737011115, "postcode": "NR16 2QR"}, {"latitude": 52.9769432464862, "code": "HEC", "name": "Heckington", "longitude": -0.293616569628938, "postcode": "NG34 9UP"}, {"latitude": 53.0406651955624, "code": "BSB", "name": "Bleasby", "longitude": -0.941825332416996, "postcode": "NG14 7GD"}, {"latitude": 51.5123365440907, "code": "SLO", "name": "Slough", "longitude": -0.591366648304654, "postcode": "SL2 5BY"}, {"latitude": 56.7132797669323, "code": "MTS", "name": "Montrose", "longitude": -2.47150876345407, "postcode": "DD10 8DE"}, {"latitude": 52.2314579830926, "code": "SNO", "name": "St Neots", "longitude": -0.24798926991562, "postcode": "PE19 1QF"}, {"latitude": 53.3205710687647, "code": "LLD", "name": "Llandudno", "longitude": -3.82695698278252, "postcode": "LL30 2AF"}, {"code": "HAF", "name": "Heathrow Terminal 4", "postcode": "TW6 3AA"}, {"latitude": 50.8663323599818, "code": "CNO", "name": "Chetnole", "longitude": -2.56867671411392, "postcode": "DT9 6PJ"}, {"latitude": 55.8264837748436, "code": "MFL", "name": "Mount Florida", "longitude": -4.26042555004565, "postcode": "G42 9DN"}, {"latitude": 53.2411116268599, "code": "HTF", "name": "Hartford", "longitude": -2.55404096450922, "postcode": "CW8 2AE"}, {"latitude": 51.4767240656674, "code": "NXG", "name": "New Cross Gate", "longitude": -0.0396680923552132, "postcode": "SE14 6BL"}, {"latitude": 55.7934334820544, "code": "WLM", "name": "Williamwood", "longitude": -4.29020868853625, "postcode": "G76 7NP"}, {"latitude": 55.8100267880933, "code": "MUI", "name": "Muirend", "longitude": -4.27460111376628, "postcode": "G44 3ES"}, {"latitude": 52.5064895073399, "code": "THW", "name": "The Hawthorns", "longitude": -1.96456802782353, "postcode": "B71 4LW"}, {"latitude": 51.4463057131734, "code": "NFL", "name": "Northfleet", "longitude": 0.324184212914137, "postcode": "DA11 9DY"}, {"latitude": 56.0450443384843, "code": "ROS", "name": "Rosyth", "longitude": -3.428156044749, "postcode": "KY11 2XW"}, {"latitude": 55.7897880167331, "code": "WCR", "name": "Whitecraigs", "longitude": -4.31018953806843, "postcode": "G46 6SA"}, {"latitude": 55.3871969989642, "code": "KRK", "name": "Kirkconnel", "longitude": -3.99996072962629, "postcode": "DG4 6LU"}, {"latitude": 54.3549844615285, "code": "BUD", "name": "Burneside", "longitude": -2.76638498753333, "postcode": "LA9 6QZ"}, {"latitude": 53.2841823799151, "code": "LLJ", "name": "Llandudno Junction", "longitude": -3.80908252099118, "postcode": "LL31 9NB"}, {"latitude": 52.7924442618626, "code": "DYF", "name": "Dyffryn Ardudwy", "longitude": -4.0964970258748, "postcode": "LL44 2BF"}, {"latitude": 52.5925880124765, "code": "BUL", "name": "Butlers Lane", "longitude": -1.83816750182882, "postcode": "B74 4RT"}, {"latitude": 53.5811087525025, "code": "APB", "name": "Appley Bridge", "longitude": -2.72084960851036, "postcode": "WN6 9AE"}, {"latitude": 51.7465374117002, "code": "SHU", "name": "Stonehouse", "longitude": -2.27934348097261, "postcode": "GL10 2QF"}, {"latitude": 52.4719999950851, "code": "BBS", "name": "Bordesley", "longitude": -1.87753296066347, "postcode": "B11 1AX"}, {"latitude": 51.1816413613261, "code": "BTY", "name": "Bentley (Hampshire)", "longitude": -0.869461777839155, "postcode": "GU10 5LB"}, {"latitude": 51.519170259676, "code": "WMI", "name": "Wildmill", "longitude": -3.58068418563205, "postcode": "CF31 1YY"}, {"latitude": 51.4556212345832, "code": "RDW", "name": "Reading West", "longitude": -0.990529720949345, "postcode": "RG30 1AS"}, {"latitude": 53.364108107294, "code": "HED", "name": "Halewood", "longitude": -2.83093858124468, "postcode": "L26 0TQ"}, {"latitude": 53.4183997606669, "code": "LEG", "name": "Lea Green", "longitude": -2.73949014751706, "postcode": "WA9 4QF"}, {"latitude": 53.778189561567, "code": "SLW", "name": "Salwick", "longitude": -2.81717102371366, "postcode": "PR4 0YH"}, {"latitude": 53.4841022275873, "code": "SYB", "name": "Stalybridge", "longitude": -2.06720163804497, "postcode": "SK15 1RH"}, {"latitude": 51.4502683064396, "code": "TWI", "name": "Twickenham", "longitude": -0.328816413234552, "postcode": "TW1 3JB"}, {"latitude": 50.8510357421154, "code": "EMS", "name": "Emsworth", "longitude": -0.938116152752034, "postcode": "PO10 7PN"}, {"latitude": 51.6154882328891, "code": "SLV", "name": "Silver Street", "longitude": -0.0662092764221106, "postcode": "N18 2UA"}, {"latitude": 50.8467914011045, "code": "PRP", "name": "Preston Park", "longitude": -0.154821637150776, "postcode": "BN1 6SF"}, {"latitude": 51.6385123452498, "code": "OKL", "name": "Oakleigh Park", "longitude": -0.166175691016867, "postcode": "EN4 8DR"}, {"latitude": 51.6052048227878, "code": "WHL", "name": "White Hart Lane", "longitude": -0.0713685599581976, "postcode": "N17 8HH"}, {"latitude": 55.6825381036501, "code": "STT", "name": "Stewarton", "longitude": -4.51714435238715, "postcode": "KA3 5BE"}, {"latitude": 54.4848275564983, "code": "WTB", "name": "Whitby", "longitude": -0.614839843380661, "postcode": "YO21 1YN"}, {"latitude": 57.4783464971448, "code": "BEL", "name": "Beauly", "longitude": -4.4673851833875, "postcode": "IV4 7EP"}, {"latitude": 55.9236391864214, "code": "LGB", "name": "Langbank", "longitude": -4.58468837173051, "postcode": "PA14 6YA"}, {"latitude": 53.3943954236665, "code": "BKQ", "name": "Hamilton Square", "longitude": -3.01422942323826, "postcode": "CH41 1AL"}, {"latitude": 54.4618200800757, "code": "SLH", "name": "Sleights", "longitude": -0.661206158238068, "postcode": "YO21 1RU"}, {"latitude": 53.0448445429511, "code": "RMB", "name": "Roman Bridge", "longitude": -3.9270829677238, "postcode": "LL25 0JG"}, {"latitude": 52.3803353437441, "code": "WYT", "name": "Wythall", "longitude": -1.86720869803419, "postcode": "B47 6HE"}, {"latitude": 51.6758665200618, "code": "TRB", "name": "Treherbert", "longitude": -3.54144435548915, "postcode": "CF42 5JJ"}, {"latitude": 53.4967838721967, "code": "MSO", "name": "Moston", "longitude": -2.20837463785055, "postcode": "M40 5AA"}, {"latitude": 50.8230657120882, "code": "NSB", "name": "Normans Bay", "longitude": 0.384421980327118, "postcode": "BN24 6PR"}, {"latitude": 51.4867346356739, "code": "SBM", "name": "South Bermondsey", "longitude": -0.0543483905457611, "postcode": "SE16 3JZ"}, {"latitude": 52.3288284331691, "code": "HUN", "name": "Huntingdon", "longitude": -0.192134060364839, "postcode": "PE29 3BP"}, {"latitude": 50.8756293149076, "code": "NTL", "name": "Netley", "longitude": -1.34193545021772, "postcode": "SO31 5AX"}, {"latitude": 55.4579450012155, "code": "AYR", "name": "Ayr", "longitude": -4.62570510156584, "postcode": "KA7 3AU"}, {"code": "NMC", "name": "New Mills Central", "postcode": "SK22 3FB"}, {"latitude": 54.2326926386309, "code": "KBF", "name": "Kirkby-in-Furness", "longitude": -3.18668529338878, "postcode": "LA17 7TA"}, {"latitude": 54.1554847194209, "code": "DLT", "name": "Dalton (Cumbria)", "longitude": -3.18041690442248, "postcode": "LA15 8PL"}, {"latitude": 56.4533063146021, "code": "CON", "name": "Connel Ferry", "longitude": -5.38206875297002, "postcode": "PA37 1PB"}, {"latitude": 52.2682227513252, "code": "DTW", "name": "Droitwich Spa", "longitude": -2.15839278409988, "postcode": "WR9 9BD"}, {"latitude": 57.4795486204957, "code": "INV", "name": "Inverness", "longitude": -4.22357569277198, "postcode": "IV1 1LF"}, {"latitude": 52.7419376056198, "code": "LLA", "name": "Llanaber", "longitude": -4.0757452242323, "postcode": "LL42 1AZ"}, {"latitude": 52.656371208814, "code": "LAW", "name": "Landywood", "longitude": -2.01920516791624, "postcode": "WS6 6JE"}, {"latitude": 51.4093937531771, "code": "RAY", "name": "Raynes Park", "longitude": -0.229940983085675, "postcode": "SW20 8NE"}, {"code": "IMW", "name": "Imperial Wharf", "postcode": "SW10 9xx"}, {"latitude": 51.4964138254007, "code": "VIC", "name": "Victoria (London)", "longitude": -0.143849080383648, "postcode": "SW1E 5ND"}, {"latitude": 54.2256860749385, "code": "SIC", "name": "Silecroft", "longitude": -3.33572174399516, "postcode": "LA18 4NS"}, {"latitude": 55.9420123373391, "code": "BGS", "name": "Bogston", "longitude": -4.73282663585734, "postcode": "PA15 2TN"}, {"latitude": 51.2920177304275, "code": "WMA", "name": "West Malling", "longitude": 0.418681907156785, "postcode": "ME19 6HJ"}, {"latitude": 55.9418814157878, "code": "CDY", "name": "Cartsdyke", "longitude": -4.73184042103825, "postcode": "PA15 2TH"}, {"latitude": 51.7596377080186, "code": "BAY", "name": "Bayford", "longitude": -0.101629606931942, "postcode": "SG13 8PL"}, {"code": "DDK", "name": "Dagenham Dock", "postcode": "RM9 6PX"}, {"latitude": 52.2663960117894, "code": "WWW", "name": "Wootton Wawen", "longitude": -1.78371739605159, "postcode": "B95 6BG"}, {"latitude": 51.3957831621138, "code": "MOT", "name": "Motspur Park", "longitude": -0.239766944001939, "postcode": "KT3 6QS"}, {"latitude": 50.8878918745085, "code": "CWU", "name": "Crowhurst", "longitude": 0.503077227742224, "postcode": "TN33 9DE"}, {"latitude": 54.1240004891277, "code": "WNN", "name": "Wennington", "longitude": -2.58638264654042, "postcode": "LA2 8PB"}, {"latitude": 55.9759925340283, "code": "LIN", "name": "Linlithgow", "longitude": -3.59633051947732, "postcode": "EH49 6AF"}, {"latitude": 53.4736165395974, "code": "AIN", "name": "Aintree", "longitude": -2.95622893447246, "postcode": "L9 5BE"}, {"latitude": 51.7679626628675, "code": "FYS", "name": "Ferryside", "longitude": -4.37016240909285, "postcode": "SA17 5SF"}, {"latitude": 55.9584357604078, "code": "FTM", "name": "Fort Matilda", "longitude": -4.79445621766153, "postcode": "PA16 7TU"}, {"latitude": 51.401449228386, "code": "VIR", "name": "Virginia Water", "longitude": -0.561322316524817, "postcode": "GU25 4BE"}, {"latitude": 54.6571185225119, "code": "SEC", "name": "Seaton Carew", "longitude": -1.19935220080778, "postcode": "TS25 2AG"}, {"latitude": 53.349092753669, "code": "PSL", "name": "Port Sunlight", "longitude": -2.9980108234433, "postcode": "CH62 4XB"}, {"latitude": 53.9793830305712, "code": "HBP", "name": "Hornbeam Park", "longitude": -1.52874914783519, "postcode": "HG2 8BW"}, {"latitude": 53.6986102380251, "code": "DWN", "name": "Darwen", "longitude": -2.46577935844823, "postcode": "BB3 3EH"}, {"latitude": 55.9435779398161, "code": "DBC", "name": "Dumbarton Central", "longitude": -4.56779073716396, "postcode": "G82 1NL"}, {"latitude": 50.796592342973, "code": "HON", "name": "Honiton", "longitude": -3.18684630285293, "postcode": "EX14 2DA"}, {"latitude": 51.5182537603409, "code": "PAD", "name": "Paddington (London)", "longitude": -0.185034520540008, "postcode": "W2 6HT"}, {"latitude": 53.5743177830826, "code": "GMD", "name": "Grimsby Docks", "longitude": -0.0760402963843352, "postcode": "DN31 3AG"}, {"latitude": 53.5735126904146, "code": "NCE", "name": "New Clee", "longitude": -0.0590397877981889, "postcode": "DN31 3AE"}, {"code": "BDB", "name": "Broadbottom", "postcode": "SK14 3LH"}, {"latitude": 50.8359710894091, "code": "AGT", "name": "Aldrington", "longitude": -0.181664539902299, "postcode": "BN3 5EZ"}, {"code": "BAW", "name": "Blackwater", "postcode": "GU17 9AF"}, {"latitude": 52.0038402831695, "code": "BWB", "name": "Bow Brickhill", "longitude": -0.695144257047631, "postcode": "MK17 9JN"}, {"latitude": 54.7600175003457, "code": "ASP", "name": "Aspatria", "longitude": -3.3288629022848, "postcode": "CA7 2AR"}, {"code": "DEW", "name": "Dewsbury", "postcode": "WF13 2PE"}, {"latitude": 51.522126188619, "code": "TGS", "name": "Ty Glas", "longitude": -3.19657882836007, "postcode": "CF14 5DL"}, {"latitude": 51.4819060446541, "code": "CDQ", "name": "Cardiff Queen Street", "longitude": -3.1706836339376, "postcode": "CF10 2FY"}, {"code": "SAT", "name": "South Acton", "postcode": "W3 8TR"}, {"latitude": 55.9194788816412, "code": "KGE", "name": "Kingsknowe", "longitude": -3.26444425858149, "postcode": "EH14 2EF"}, {"latitude": 53.7502548709224, "code": "CTW", "name": "Church and Oswaldtwistle", "longitude": -2.3906789314168, "postcode": "BB5 0EG"}, {"code": "BNY", "name": "Barnsley", "postcode": "S70 1SD"}, {"latitude": 51.334291960122, "code": "EPS", "name": "Epsom", "longitude": -0.268738357937156, "postcode": "KT19 8EU"}, {"latitude": 51.2724569271145, "code": "AHV", "name": "Ash Vale", "longitude": -0.721986807135812, "postcode": "GU12 5NJ"}, {"latitude": 55.7799078232737, "code": "BUS", "name": "Busby", "longitude": -4.2615385129799, "postcode": "G76 8HY"}, {"latitude": 50.8465953761859, "code": "MCB", "name": "Moulsecoomb", "longitude": -0.118335443085333, "postcode": "BN2 4GP"}, {"latitude": 53.7140791143702, "code": "TOD", "name": "Todmorden", "longitude": -2.10085701515524, "postcode": "OL14 7AP"}, {"latitude": 51.1167236753582, "code": "TBD", "name": "Three Bridges", "longitude": -0.159991755526843, "postcode": "RH10 7AZ"}, {"latitude": 55.7820771682564, "code": "AIR", "name": "Airbles", "longitude": -3.99346869677022, "postcode": "ML1 2SX"}, {"latitude": 54.4777004484967, "code": "KLD", "name": "Kildale", "longitude": -1.0700431002497, "postcode": "YO21 2RJ"}, {"latitude": 53.1580574044178, "code": "CNG", "name": "Congleton", "longitude": -2.19042763635949, "postcode": "CW12 3LF"}, {"code": "CHM", "name": "Chelmsford (Essex)", "postcode": "CM1 1AS"}, {"latitude": 56.4300272512957, "code": "TAY", "name": "Taynuilt", "longitude": -5.2405178886797, "postcode": "PA35 1JN"}, {"latitude": 51.7027594179031, "code": "CHN", "name": "Cheshunt", "longitude": -0.024066044026389, "postcode": "EN8 9AQ"}, {"latitude": 51.7879478944424, "code": "SMT", "name": "St Margarets (Herts)", "longitude": 0.00120146469671229, "postcode": "SG12 8DS"}, {"latitude": 53.3305509160433, "code": "WBR", "name": "Whaley Bridge", "longitude": -1.98491544466241, "postcode": "SK23 7AF"}, {"code": "BHS", "name": "Brockholes", "postcode": "HD7 7BG"}, {"latitude": 56.3750712231256, "code": "LEU", "name": "Leuchars", "longitude": -2.89359936594171, "postcode": "KY16 0AA"}, {"latitude": 53.6991097989756, "code": "HEL", "name": "Hensall", "longitude": -1.11553686989297, "postcode": "DN14 0QN"}, {"latitude": 53.0984223227082, "code": "CYB", "name": "Cefn-y-Bedd", "longitude": -3.03040191671304, "postcode": "LL12 9UU"}, {"latitude": 51.28561540836, "code": "EML", "name": "East Malling", "longitude": 0.438997602543499, "postcode": "ME19 6AN"}, {"latitude": 55.856115669138, "code": "BLG", "name": "Bellgrove", "longitude": -4.22790419172499, "postcode": "G31 1AD"}, {"latitude": 51.4807814934256, "code": "CHK", "name": "Chiswick", "longitude": -0.267013318145359, "postcode": "W4 3HF"}, {"latitude": 50.8404756838691, "code": "BRK", "name": "Berwick", "longitude": 0.166476749287613, "postcode": "BN26 6TA"}, {"latitude": 51.412851989462, "code": "KNG", "name": "Kingston", "longitude": -0.301996052684343, "postcode": "KT1 1UJ"}, {"latitude": 51.5121602183926, "code": "HAN", "name": "Hanwell", "longitude": -0.338139285487742, "postcode": "W7 3EB"}, {"latitude": 51.8662031374885, "code": "SIP", "name": "Shipton", "longitude": -1.59258685221958, "postcode": "OX7 6BH"}, {"latitude": 54.1153474382844, "code": "ROO", "name": "Roose", "longitude": -3.19374827023157, "postcode": "LA13 0ER"}, {"latitude": 51.5687823567089, "code": "LEM", "name": "Leyton Midland Road", "longitude": -0.00822164788182716, "postcode": "E10 6RN"}, {"latitude": 51.6495541085539, "code": "WDF", "name": "South Woodham Ferrers", "longitude": 0.606525155494865, "postcode": "CM3 5NQ"}, {"latitude": 51.1855419438874, "code": "WYE", "name": "Wye", "longitude": 0.929194360210955, "postcode": "TN25 5HB"}, {"latitude": 51.4762580370997, "code": "GRY", "name": "Grays", "longitude": 0.321659967735227, "postcode": "RM17 6NQ"}, {"latitude": 56.843032121943, "code": "BNV", "name": "Banavie", "longitude": -5.09597770352307, "postcode": "PH33 7PH"}, {"latitude": 53.2717483352179, "code": "CEL", "name": "Chelford (Cheshire)", "longitude": -2.28132146266874, "postcode": "SK11 9BU"}, {"latitude": 50.8964326294233, "code": "AMY", "name": "Amberley", "longitude": -0.54241248507909, "postcode": "BN18 9LR"}, {"latitude": 50.6484068741352, "code": "UPW", "name": "Upwey", "longitude": -2.46664892370934, "postcode": "DT3 5RB"}, {"latitude": 51.468576655886, "code": "MTP", "name": "Montpelier", "longitude": -2.58866005747823, "postcode": "BS6 5HA"}, {"latitude": 51.493063848145, "code": "FRW", "name": "Fairwater", "longitude": -3.23479665188818, "postcode": "CF5 2LR"}, {"latitude": 51.6866208213279, "code": "MEV", "name": "Merthyr Vale", "longitude": -3.33748673326087, "postcode": "CF48 4TE"}, {"latitude": 52.4715823020243, "code": "OHL", "name": "Old Hill", "longitude": -2.05650088537143, "postcode": "B64 6PL"}, {"latitude": 52.3473842975236, "code": "ALV", "name": "Alvechurch", "longitude": -1.96629453819775, "postcode": "B48 7SE"}, {"latitude": 50.4470100392895, "code": "LSK", "name": "Liskeard", "longitude": -4.4689213433465, "postcode": "PL14 4DZ"}, {"latitude": 52.3934762371311, "code": "THL", "name": "Tile Hill", "longitude": -1.59646658659345, "postcode": "CV4 8AR"}, {"latitude": 53.4526358096147, "code": "SNH", "name": "St Helens Central", "longitude": -2.73104973312224, "postcode": "WA10 1DG"}, {"code": "MIR", "name": "Mirfield", "postcode": "WF14 8PT"}, {"latitude": 51.4494093195065, "code": "CRY", "name": "Crayford", "longitude": 0.178543782933378, "postcode": "DA1 4HW"}, {"latitude": 51.3410160657501, "code": "RAM", "name": "Ramsgate", "longitude": 1.40740205334207, "postcode": "CT11 7RE"}, {"latitude": 51.4755241120225, "code": "TWY", "name": "Twyford", "longitude": -0.863220882550647, "postcode": "RG10 9NA"}, {"latitude": 53.3294469860276, "code": "HSW", "name": "Heswall", "longitude": -3.07411681819725, "postcode": "CH60 1XQ"}, {"latitude": 51.5143243743353, "code": "SFO", "name": "Stanford-le-Hope", "longitude": 0.423077024430881, "postcode": "SS17 0JX"}, {"latitude": 51.4255152146598, "code": "HYR", "name": "Haydons Road", "longitude": -0.188020854734407, "postcode": "SW19 8RP"}, {"latitude": 51.556630575385, "code": "CRI", "name": "Cricklewood", "longitude": -0.214738755221819, "postcode": "NW2 1EU"}, {"latitude": 53.7870768928419, "code": "RSG", "name": "Rose Grove", "longitude": -2.28257493268137, "postcode": "BB12 6EU"}, {"latitude": 52.4908393396126, "code": "BRH", "name": "Borth", "longitude": -4.04987351595001, "postcode": "SY24 5HT"}, {"latitude": 53.7247484189461, "code": "CFD", "name": "Castleford", "longitude": -1.35400593036985, "postcode": "WF10 1DZ"}, {"latitude": 53.9255892752342, "code": "BEY", "name": "Ben Rhydding", "longitude": -1.79729381635112, "postcode": "LS29 8PL"}, {"latitude": 52.5355467111963, "code": "SPN", "name": "Spooner Row", "longitude": 1.08492155267685, "postcode": "NR18 9JR"}, {"latitude": 51.2621948049327, "code": "HBN", "name": "Hollingbourne", "longitude": 0.630444709240059, "postcode": "ME17 1TX"}, {"latitude": 54.1784757880011, "code": "CAK", "name": "Cark and Cartmel", "longitude": -2.97448995026621, "postcode": "LA11 7PT"}, {"latitude": 51.5704894802652, "code": "CHO", "name": "Cholsey", "longitude": -1.1579167001222, "postcode": "OX10 9LN"}, {"latitude": 51.4856331072133, "code": "CFH", "name": "Chafford Hundred Lakeside", "longitude": 0.287594872898346, "postcode": "RM16 6QQ"}, {"latitude": 53.7859462213882, "code": "BYM", "name": "Burnley Manchester Road", "longitude": -2.24934382207559, "postcode": "BB11 4HY"}, {"latitude": 51.4306699562517, "code": "WNS", "name": "Winnersh", "longitude": -0.87696421327061, "postcode": "RG41 5NA"}, {"latitude": 57.6091918526665, "code": "FOR", "name": "Forres", "longitude": -3.62441677669849, "postcode": "IV36 1GZ"}, {"latitude": 51.463460972098, "code": "BXH", "name": "Bexleyheath", "longitude": 0.133805121351562, "postcode": "DA7 4AA"}, {"latitude": 52.9641614863074, "code": "CTO", "name": "Carlton", "longitude": -1.07982112581055, "postcode": "NG4 2FD"}, {"latitude": 55.9988914802414, "code": "DUN", "name": "Dunbar", "longitude": -2.51290546177123, "postcode": "EH42 1JX"}, {"latitude": 50.3820222588585, "code": "DOC", "name": "Dockyard", "longitude": -4.17632776365212, "postcode": "PL2 1RZ"}, {"latitude": 52.9043869539832, "code": "TAL", "name": "Talsarnau", "longitude": -4.06804010145023, "postcode": "LL47 6UA"}, {"code": "EAL", "name": "Ealing Broadway", "postcode": "W5 2PT"}, {"latitude": 52.0254869391835, "code": "ARL", "name": "Arlesey", "longitude": -0.26546627658867, "postcode": "SG15 6XA"}, {"latitude": 51.3577395945932, "code": "WHI", "name": "Whitstable", "longitude": 1.03405226656463, "postcode": "CT5 1QS"}, {"latitude": 52.9264008424999, "code": "GOB", "name": "Gobowen", "longitude": -2.98343950015268, "postcode": "SY11 3LX"}, {"code": "SOW", "name": "Sowerby Bridge", "postcode": "HX6 3LA"}, {"code": "STP", "name": "St Pancras (London)", "postcode": "NW1 2QL"}, {"latitude": 57.3380560144372, "code": "INS", "name": "Insch", "longitude": -2.61589257736466, "postcode": "AB52 6WN"}, {"latitude": 54.5244699445504, "code": "ALW", "name": "Allens West", "longitude": -1.36099562254733, "postcode": "TS16 0PF"}, {"code": "ANL", "name": "Anniesland", "postcode": "G13 1HX"}, {"code": "ALP", "name": "Althorpe", "postcode": "DN17 3HL"}, {"latitude": 50.9180212967545, "code": "TTN", "name": "Totton", "longitude": -1.4834401744271, "postcode": "SO40 3AD"}, {"latitude": 53.5451637612374, "code": "THC", "name": "Thurnscoe", "longitude": -1.30949108449315, "postcode": "S63 0JR"}, {"latitude": 51.5392821576413, "code": "BKG", "name": "Barking", "longitude": 0.0816282725506921, "postcode": "IG11 8EA"}, {"latitude": 51.5409884269129, "code": "LOF", "name": "London Fields", "longitude": -0.0576882038715343, "postcode": "E8 3PH"}, {"latitude": 51.8973361266076, "code": "CNM", "name": "Cheltenham Spa", "longitude": -2.09957647697157, "postcode": "GL51 8NP"}, {"code": "LGK", "name": "Longbeck", "postcode": "TS11 6HD"}, {"latitude": 53.0928013251701, "code": "ASG", "name": "Alsager", "longitude": -2.29799621452463, "postcode": "ST7 2PN"}, {"latitude": 51.7706495905961, "code": "HDM", "name": "Haddenham and Thame Parkway", "longitude": -0.940286893004461, "postcode": "HP17 8EQ"}, {"latitude": 51.0954307001505, "code": "WHA", "name": "Westenhanger", "longitude": 1.03818051906529, "postcode": "TN25 6DE"}, {"latitude": 51.7343210797114, "code": "MRS", "name": "Monks Risborough", "longitude": -0.830008133514727, "postcode": "HP27 9JQ"}, {"latitude": 51.4181811012042, "code": "SUU", "name": "Sunbury", "longitude": -0.417398895999767, "postcode": "TW16 6SA"}, {"latitude": 50.7686533985384, "code": "WHM", "name": "Whimple", "longitude": -3.35343303740524, "postcode": "EX5 2QJ"}, {"latitude": 51.1332914443142, "code": "WTY", "name": "Witley", "longitude": -0.648480542123372, "postcode": "GU8 5TD"}, {"latitude": 51.7137896310501, "code": "LYD", "name": "Lydney", "longitude": -2.53041124918406, "postcode": "GL15 5ER"}, {"latitude": 51.3720984101306, "code": "MOR", "name": "Mortimer", "longitude": -1.03572515508316, "postcode": "RG7 3NY"}, {"latitude": 51.8544167752089, "code": "FIN", "name": "Finstock", "longitude": -1.46880119922152, "postcode": "OX7 3AW"}, {"latitude": 51.5406333097618, "code": "EXR", "name": "Essex Road", "longitude": -0.0963655221931673, "postcode": "N1 2SU"}, {"latitude": 55.8295598061245, "code": "RUT", "name": "Rutherglen", "longitude": -4.21086453693514, "postcode": "G73 1DT"}, {"latitude": 52.2147504858593, "code": "SAX", "name": "Saxmundham", "longitude": 1.490973710332, "postcode": "IP17 1BW"}, {"latitude": 53.3017860081628, "code": "DRO", "name": "Dronfield", "longitude": -1.46943375154755, "postcode": "S18 2XA"}, {"latitude": 50.952859819906, "code": "BUG", "name": "Burgess Hill", "longitude": -0.127202749246144, "postcode": "RH15 0AA"}, {"latitude": 53.5250382576333, "code": "HTO", "name": "Hightown", "longitude": -3.05694601615115, "postcode": "L38 3RX"}, {"latitude": 52.1241119876399, "code": "SDY", "name": "Sandy", "longitude": -0.281798648318686, "postcode": "SG19 1AW"}, {"latitude": 53.3245501453675, "code": "SRO", "name": "Shireoaks", "longitude": -1.16795035388273, "postcode": "S81 8LW"}, {"latitude": 51.4455056369991, "code": "CGN", "name": "Cogan", "longitude": -3.19043028201034, "postcode": "CF64 2NS"}, {"latitude": 51.3860174792298, "code": "MAR", "name": "Margate", "longitude": 1.37266493958219, "postcode": "CT9 5AD"}, {"code": "HER", "name": "Hersham", "postcode": "KT12 3RW"}, {"latitude": 53.7573472039729, "code": "WDS", "name": "Woodlesford", "longitude": -1.44525341435237, "postcode": "LS26 8RA"}, {"latitude": 50.9203496330868, "code": "RDB", "name": "Redbridge", "longitude": -1.46924476551088, "postcode": "SO15 0LR"}, {"latitude": 53.0825073397384, "code": "NSD", "name": "Newstead", "longitude": -1.23887987253482, "postcode": "NG17 9AQ"}, {"code": "PMH", "name": "Portsmouth Harbour", "postcode": "PO1 3EU"}, {"latitude": 55.8450880198667, "code": "BIO", "name": "Baillieston", "longitude": -4.11436986346226, "postcode": "G69 7DH"}, {"latitude": 50.7907357310075, "code": "NVH", "name": "Newhaven Harbour", "longitude": 0.0554175527412177, "postcode": "BN9 0BB"}, {"latitude": 51.7096166259748, "code": "BHD", "name": "Brithdir", "longitude": -3.228441567364, "postcode": "NP24 6XY"}, {"latitude": 52.6852377835387, "code": "CAO", "name": "Cannock", "longitude": -2.01378895968285, "postcode": "WS11 8NQ"}, {"latitude": 51.4463566163295, "code": "WSW", "name": "Wandsworth Common", "longitude": -0.163537337818407, "postcode": "SW12 8PB"}, {"latitude": 52.9516914202457, "code": "ALK", "name": "Aslockton", "longitude": -0.898853124691651, "postcode": "NG13 9BE"}, {"latitude": 50.9098999623116, "code": "THO", "name": "Thornford", "longitude": -2.58705802282357, "postcode": "DT9 6HE"}, {"latitude": 51.3363651708822, "code": "OXS", "name": "Oxshott", "longitude": -0.362879765032756, "postcode": "KT22 0TA"}, {"latitude": 51.5472199203014, "code": "KTW", "name": "Kentish Town West", "longitude": -0.146599296933033, "postcode": "NW5 3ED"}, {"latitude": 51.5924845284885, "code": "HRW", "name": "Harrow & Wealdstone", "longitude": -0.334097904388644, "postcode": "HA3 5AG"}, {"latitude": 52.5190476838114, "code": "WTO", "name": "Water Orton", "longitude": -1.74445843120108, "postcode": "B46 1NG"}, {"code": "CLT", "name": "Clacton-on-Sea", "postcode": "CO15 6PZ"}, {"latitude": 53.7349029438342, "code": "MLH", "name": "Mill Hill (Lancashire)", "longitude": -2.50177451319325, "postcode": "BB2 4BY"}, {"latitude": 53.4880512676315, "code": "MCV", "name": "Victoria (Manchester)", "longitude": -2.24415535329275, "postcode": "M3 1AR"}, {"latitude": 52.1335728019703, "code": "GTH", "name": "Garth (Powys)", "longitude": -3.53062049431308, "postcode": "LD4 4AF"}, {"latitude": 53.1223787037158, "code": "MTB", "name": "Matlock Bath", "longitude": -1.55828294794597, "postcode": "DE4 3NT"}, {"latitude": 52.2257862924126, "code": "LEO", "name": "Leominster", "longitude": -2.73135331690731, "postcode": "HR6 8AR"}, {"latitude": 51.6912392864135, "code": "TEO", "name": "Theobalds Grove", "longitude": -0.0363453774084378, "postcode": "EN8 7BG"}, {"latitude": 51.571527990394, "code": "MLW", "name": "Marlow", "longitude": -0.767714962014744, "postcode": "SL7 1NT"}, {"latitude": 55.819025714555, "code": "CFF", "name": "Croftfoot", "longitude": -4.22883224589888, "postcode": "G73 2AH"}, {"latitude": 53.1379384186631, "code": "MAT", "name": "Matlock", "longitude": -1.55819819779302, "postcode": "DE4 3NA"}, {"latitude": 51.5814113921651, "code": "WMW", "name": "Walthamstow Queens Road", "longitude": -0.0227816843839195, "postcode": "E17 7QJ"}, {"code": "SAF", "name": "Salfords (Surrey)", "postcode": "RH1 5JL"}, {"latitude": 51.2444670671044, "code": "WAN", "name": "Wanborough", "longitude": -0.668234116330518, "postcode": "GU3 2EX"}, {"latitude": 53.5856802326846, "code": "SCU", "name": "Scunthorpe", "longitude": -0.635904461694283, "postcode": "DN16 1TL"}, {"latitude": 53.3217253726154, "code": "BOM", "name": "Bromborough", "longitude": -2.98777874458238, "postcode": "CH63 0JR"}, {"latitude": 55.8404686270814, "code": "PCN", "name": "Paisley Canal", "longitude": -4.42415845688501, "postcode": "PA1 1YU"}, {"latitude": 54.084695213162, "code": "BDT", "name": "Bridlington", "longitude": -0.20105034705171, "postcode": "YO16 4LZ"}, {"latitude": 53.1940754663839, "code": "HKM", "name": "Hykeham", "longitude": -0.599942324812037, "postcode": "LN6 9AT"}, {"latitude": 52.367202666315, "code": "EWD", "name": "Earlswood (West Midlands)", "longitude": -1.86103557675425, "postcode": "B94 5JS"}, {"latitude": 51.3797288905561, "code": "ESH", "name": "Esher", "longitude": -0.354033359474673, "postcode": "KT10 8DT"}, {"latitude": 53.8479353875765, "code": "HRS", "name": "Horsforth", "longitude": -1.63151852249067, "postcode": "LS18 5NP"}, {"latitude": 53.3606251094731, "code": "HNX", "name": "Hunts Cross", "longitude": -2.85446217395471, "postcode": "L25 0NL"}, {"latitude": 51.5455543518466, "code": "HHY", "name": "Highbury and Islington", "longitude": -0.104827952370282, "postcode": "N1 1SB"}, {"latitude": 52.2371014868525, "code": "NMP", "name": "Northampton", "longitude": -0.906311452453415, "postcode": "NN1 1SP"}, {"latitude": 53.5263876459707, "code": "PNS", "name": "Penistone", "longitude": -1.62138563291986, "postcode": "S36 6HN"}, {"latitude": 54.1697296138657, "code": "SVR", "name": "Silverdale", "longitude": -2.80425290146495, "postcode": "LA5 0SP"}, {"latitude": 53.578870593038, "code": "HWI", "name": "Horwich Parkway", "longitude": -2.53807506373629, "postcode": "BL6 6LB"}, {"latitude": 51.3595845805044, "code": "SUO", "name": "Sutton (London)", "longitude": -0.191140917423662, "postcode": "SM1 1JA"}, {"latitude": 55.7792044038027, "code": "HNW", "name": "Hamilton West", "longitude": -4.05654913895473, "postcode": "ML3 9AY"}, {"latitude": 52.6227064689244, "code": "BGA", "name": "Brundall Gardens", "longitude": 1.41887623230318, "postcode": "NR13 5RG"}, {"latitude": 51.4177431905982, "code": "KYN", "name": "Keynsham", "longitude": -2.49618754188976, "postcode": "BS31 2BT"}, {"latitude": 56.1115874369796, "code": "COW", "name": "Cowdenbeath", "longitude": -3.34284702256243, "postcode": "KY4 9SG"}, {"latitude": 52.4847240059768, "code": "SCF", "name": "Stechford", "longitude": -1.81152660302404, "postcode": "B33 8AJ"}, {"latitude": 55.7655133284348, "code": "CTE", "name": "Chatelherault", "longitude": -4.00346269294484, "postcode": "ML3 7UD"}, {"latitude": 56.870557947215, "code": "GLF", "name": "Glenfinnan", "longitude": -5.44539601482935, "postcode": "PH37 4LT"}, {"latitude": 51.5457327635266, "code": "MYL", "name": "Maryland", "longitude": 0.00611717177738714, "postcode": "E15 1EY"}, {"latitude": 52.345610850299, "code": "KNI", "name": "Knighton", "longitude": -3.04372083656585, "postcode": "LD7 1DY"}, {"latitude": 51.3967640184225, "code": "NBY", "name": "Newbury", "longitude": -1.32360736755111, "postcode": "RG14 7LP"}, {"latitude": 51.5634626679369, "code": "SVK", "name": "Seven Kings", "longitude": 0.0968290191274609, "postcode": "IG3 8BG"}, {"latitude": 51.4617899294312, "code": "EDW", "name": "East Dulwich", "longitude": -0.0805880267636853, "postcode": "SE22 8EF"}, {"latitude": 51.5340014924627, "code": "HOT", "name": "Henley-on-Thames", "longitude": -0.899409166227511, "postcode": "RG9 1BE"}, {"latitude": 53.5510870847038, "code": "MIH", "name": "Mills Hill (Manchester)", "longitude": -2.17169325262733, "postcode": "M24 2EH"}, {"latitude": 51.538093771197, "code": "TPB", "name": "Thorpe Bay", "longitude": 0.76229340694904, "postcode": "SS1 3QH"}, {"latitude": 55.750840949091, "code": "FRL", "name": "Fairlie", "longitude": -4.85452659784136, "postcode": "KA29 0DY"}, {"code": "SUN", "name": "Sunderland", "postcode": "SR1 3HR"}, {"latitude": 51.4497806229299, "code": "LEE", "name": "Lee", "longitude": 0.0139833443458796, "postcode": "SE12 0AD"}, {"latitude": 51.4120324175991, "code": "KTH", "name": "Kent House", "longitude": -0.0462474192867794, "postcode": "BR3 1JD"}, {"latitude": 50.7789727767409, "code": "NTC", "name": "Newton St Cyres", "longitude": -3.58838395592492, "postcode": "EX5 5AS"}, {"latitude": 50.1779098625966, "code": "LTS", "name": "Lelant Saltings", "longitude": -5.44309200927036, "postcode": "TR27 6HB"}, {"latitude": 53.0457172549836, "code": "WXC", "name": "Wrexham Central", "longitude": -2.99555154767944, "postcode": "LL11 1SP"}, {"latitude": 51.6575491075252, "code": "TRY", "name": "Treorchy", "longitude": -3.50616861630049, "postcode": "CF42 6UE"}, {"latitude": 50.8182832772271, "code": "WWO", "name": "West Worthing", "longitude": -0.393157944265273, "postcode": "BN11 4SR"}, {"latitude": 53.3778733820325, "code": "SHF", "name": "Sheffield", "longitude": -1.46285193285145, "postcode": "S1 2BP"}, {"latitude": 53.2212344537076, "code": "LPG", "name": "Llanfairpwll", "longitude": -4.20891634969547, "postcode": "LL61 5UJ"}, {"latitude": 51.5087567127773, "code": "ACC", "name": "Acton Central", "longitude": -0.263358184187473, "postcode": "W3 6BH"}, {"code": "CPK", "name": "Carpenders Park", "postcode": "WD1 6DT"}, {"latitude": 50.6337675967267, "code": "SHN", "name": "Shanklin", "longitude": -1.17994981329618, "postcode": "PO37 7AR"}, {"latitude": 51.6343682718081, "code": "WIH", "name": "Winchmore Hill", "longitude": -0.101214731381542, "postcode": "N21 1BS"}, {"latitude": 53.7500732198486, "code": "MLY", "name": "Morley", "longitude": -1.59241607568054, "postcode": "LS27 8LJ"}, {"latitude": 52.5163159679276, "code": "PRY", "name": "Perry Barr", "longitude": -1.90171011929203, "postcode": "B20 3JE"}, {"latitude": 51.4830136554236, "code": "MZH", "name": "Maze Hill", "longitude": 0.00320490051759238, "postcode": "SE10 9XR"}, {"latitude": 53.2948855820869, "code": "AGL", "name": "Abergele & Pensarn", "longitude": -3.58105862315749, "postcode": "LL22 7SD"}, {"latitude": 52.9304064159678, "code": "CMR", "name": "Cromer", "longitude": 1.29210489087997, "postcode": "NR27 9SW"}, {"latitude": 55.8290462632204, "code": "SHL", "name": "Shawlands", "longitude": -4.29289286140137, "postcode": "G41 3SW"}, {"code": "RCD", "name": "Rochdale", "postcode": "OL12 8LN"}, {"code": "ALT", "name": "Altrincham", "postcode": "WA14 1EN"}, {"latitude": 53.2949717491658, "code": "DGY", "name": "Deganwy", "longitude": -3.833126423288, "postcode": "LL31 9EJ"}, {"latitude": 58.4980502414649, "code": "GGJ", "name": "Georgemas Junction", "longitude": -3.44518030661131, "postcode": "KW12 6XA"}, {"latitude": 53.4867317486451, "code": "ORN", "name": "Old Roan", "longitude": -2.94939538057373, "postcode": "L10 3JG"}, {"latitude": 54.5822296496259, "code": "SBK", "name": "South Bank", "longitude": -1.17656006074797, "postcode": "TS6 6AN"}, {"latitude": 54.3778129900846, "code": "DRI", "name": "Drigg", "longitude": -3.44301233487909, "postcode": "CA19 1XR"}, {"latitude": 53.5542576741941, "code": "FBY", "name": "Formby", "longitude": -3.06943342051278, "postcode": "L37 3PD"}, {"latitude": 50.8168424160979, "code": "ANG", "name": "Angmering", "longitude": -0.48925760517278, "postcode": "BN16 3RE"}, {"latitude": 55.8276916328344, "code": "BRC", "name": "Breich", "longitude": -3.66501279024539, "postcode": "EH55 8JH"}, {"latitude": 51.4667672756933, "code": "CDB", "name": "Cardiff Bay", "longitude": -3.16671136861564, "postcode": "CF10 5LE"}, {"code": "WFS", "name": "Watford Stadium", "postcode": "WD1 8DD"}, {"latitude": 55.8992127729286, "code": "CUH", "name": "Curriehill", "longitude": -3.31622696130392, "postcode": "EH14 5QR"}, {"latitude": 51.6399034392682, "code": "CPW", "name": "Chepstow", "longitude": -2.67185813743646, "postcode": "NP16 5PD"}, {"latitude": 53.2966564404826, "code": "CWB", "name": "Colwyn Bay", "longitude": -3.72565422773504, "postcode": "LL29 8DF"}, {"code": "CHH", "name": "Christs Hospital", "postcode": "RH13 7NE"}, {"code": "IBM", "name": "IBM", "postcode": "PA16 0AJ"}, {"latitude": 55.8108988294963, "code": "HTW", "name": "Hartwood", "longitude": -3.83950247121789, "postcode": "ML7 5DU"}, {"latitude": 53.0999081942613, "code": "KKB", "name": "Kirkby-in-Ashfield", "longitude": -1.25270161902278, "postcode": "NG17 8DB"}, {"latitude": 53.2231951075608, "code": "GTR", "name": "Goostrey", "longitude": -2.32219184228899, "postcode": "CW4 8PL"}, {"latitude": 51.5815957659792, "code": "KNT", "name": "Kenton", "longitude": -0.315256483707463, "postcode": "HA3 0JA"}, {"code": "STE", "name": "Streatham", "postcode": "SW16 6JJ"}, {"latitude": 52.5043549087844, "code": "BEP", "name": "Bermuda Park", "longitude": -1.47392540724212, "postcode": "CV10 7JS"}, {"latitude": 53.0650376294452, "code": "PYP", "name": "Pont-y-Pant", "longitude": -3.86271712833652, "postcode": "LL25 0PJ"}, {"code": "BNL", "name": "Barnhill", "postcode": "G21 4NA"}, {"latitude": 51.5305169824095, "code": "SRY", "name": "Shoeburyness", "longitude": 0.795475485560154, "postcode": "SS3 9AW"}, {"latitude": 52.9185871826211, "code": "CCC", "name": "Criccieth", "longitude": -4.23747711029873, "postcode": "LL52 0RW"}, {"latitude": 51.5647342020683, "code": "FPK", "name": "Finsbury Park", "longitude": -0.105314671238981, "postcode": "N4 2DQ"}, {"latitude": 54.1911792161215, "code": "ULV", "name": "Ulverston", "longitude": -3.09836464752361, "postcode": "LA12 0DP"}, {"latitude": 53.347989271272, "code": "FNV", "name": "Furness Vale", "longitude": -1.98828922202704, "postcode": "SK23 7PQ"}, {"latitude": 51.520293142183, "code": "ZFD", "name": "Farringdon", "longitude": -0.104752526512478, "postcode": "EC1M 6BY"}, {"latitude": 53.6242984683908, "code": "SWT", "name": "Slaithwaite", "longitude": -1.88157759370828, "postcode": "HD7 5EF"}, {"latitude": 53.34070310735, "code": "BAM", "name": "Bamford", "longitude": -1.69039120714828, "postcode": "S33 0BN"}, {"latitude": 55.3928415348012, "code": "ALM", "name": "Alnmouth for Alnwick", "longitude": -1.63654253764895, "postcode": "NE66 3QF"}, {"latitude": 53.5635849446641, "code": "GMB", "name": "Grimsby Town", "longitude": -0.0873090208952749, "postcode": "DN31 1LY"}, {"latitude": 51.3770273265698, "code": "BCH", "name": "Birchington-on-Sea", "longitude": 1.3002253151249, "postcode": "CT7 9HY"}, {"latitude": 53.8679464356387, "code": "KEI", "name": "Keighley", "longitude": -1.90174098055606, "postcode": "BD21 4HP"}, {"code": "CGM", "name": "Cottingham", "postcode": "HU16 4YA"}, {"latitude": 53.8043863853023, "code": "NQC", "name": "New Pudsey", "longitude": -1.68089952145649, "postcode": "LS28 6QG"}, {"latitude": 54.1191593047551, "code": "BIF", "name": "Barrow-in-Furness", "longitude": -3.22496269719786, "postcode": "LA14 5AE"}, {"latitude": 55.863532691162, "code": "COA", "name": "Coatdyke", "longitude": -4.00521507311316, "postcode": "ML5 3PY"}, {"code": "HOZ", "name": "Howwood (Renfrewshire)", "postcode": "PA9 1XX"}, {"latitude": 52.5153390800114, "code": "GVH", "name": "Gravelly Hill", "longitude": -1.85261221031884, "postcode": "B23 7NH"}, {"latitude": 52.7887431011146, "code": "SPA", "name": "Spalding", "longitude": -0.156946087399686, "postcode": "PE11 1EY"}, {"latitude": 52.9417506850134, "code": "SHM", "name": "Sheringham", "longitude": 1.21019546159754, "postcode": "NR26 8RG"}, {"latitude": 51.0016619833361, "code": "TMC", "name": "Templecombe", "longitude": -2.41668605230829, "postcode": "BA8 0JR"}, {"latitude": 53.4579941099286, "code": "RIL", "name": "Rice Lane", "longitude": -2.9640407774805, "postcode": "L9 3DD"}, {"code": "HMW", "name": "Hampton Wick", "postcode": "KT1 4WB"}, {"code": "SUD", "name": "Sudbury & Harrow Road", "postcode": "HA0 2NB"}, {"latitude": 55.8453835555533, "code": "DUM", "name": "Dumbreck", "longitude": -4.30118730658115, "postcode": "G41 5BQ"}, {"latitude": 53.1012369354011, "code": "ALF", "name": "Alfreton", "longitude": -1.37226831331575, "postcode": "DE55 7JR"}, {"latitude": 51.4398878361402, "code": "TUH", "name": "Tulse Hill", "longitude": -0.105708711803565, "postcode": "SE27 9BW"}, {"latitude": 58.4410579826917, "code": "WCK", "name": "Wick", "longitude": -3.09718583470379, "postcode": "KW1 5LB"}, {"latitude": 52.0506274806339, "code": "DBR", "name": "Derby Road (Ipswich)", "longitude": 1.18348021214918, "postcode": "IP3 8HX"}, {"latitude": 54.5276149849018, "code": "NNT", "name": "Nunthorpe", "longitude": -1.16999512242357, "postcode": "TS7 0BL"}, {"latitude": 55.8702480096801, "code": "PTK", "name": "Partick", "longitude": -4.30908412428349, "postcode": "G11 6DB"}, {"latitude": 56.9663047201538, "code": "STN", "name": "Stonehaven", "longitude": -2.22557377765124, "postcode": "AB39 2NE"}, {"latitude": 52.511948996918, "code": "WTT", "name": "Witton", "longitude": -1.88417070968307, "postcode": "B6 6QU"}, {"latitude": 51.4022938763261, "code": "HMC", "name": "Hampton Court", "longitude": -0.342757148434798, "postcode": "KT8 9AE"}, {"latitude": 51.7464105577814, "code": "PLT", "name": "Pontlottyn", "longitude": -3.27980471768711, "postcode": "CF81 9QX"}, {"latitude": 57.2861805661284, "code": "INR", "name": "Inverurie", "longitude": -2.37355895191259, "postcode": "AB51 4TN"}, {"latitude": 51.4250936903824, "code": "LSY", "name": "Lower Sydenham", "longitude": -0.0324998246846073, "postcode": "SE26 5BN"}, {"latitude": 54.4389093453285, "code": "GLS", "name": "Glaisdale", "longitude": -0.794264252328848, "postcode": "YO21 2QL"}, {"latitude": 52.0046438519482, "code": "FGW", "name": "Fishguard and Goodwick", "longitude": -4.99477206848636, "postcode": "SA64 0DG"}, {"latitude": 55.9043630325199, "code": "BBG", "name": "Bishopbriggs", "longitude": -4.22574312083378, "postcode": "G64 2RD"}, {"latitude": 53.2616230635063, "code": "NWI", "name": "Northwich", "longitude": -2.49507535221889, "postcode": "CW9 7FF"}, {"latitude": 54.4185299347625, "code": "SEL", "name": "Sellafield", "longitude": -3.48807341734528, "postcode": "CA20 1RG"}, {"latitude": 50.6685820014334, "code": "EXN", "name": "Exton", "longitude": -3.44226562819884, "postcode": "EX3 0PG"}, {"latitude": 51.8184326928107, "code": "WTL", "name": "Whitland", "longitude": -4.61393594086362, "postcode": "SA34 0AP"}, {"latitude": 50.8994180459742, "code": "WLS", "name": "Woolston", "longitude": -1.37699448638002, "postcode": "SO19 7DD"}, {"latitude": 57.3522557751292, "code": "STF", "name": "Stromeferry", "longitude": -5.55420119906582, "postcode": "IV53 8UJ"}, {"latitude": 51.2533658196081, "code": "OVR", "name": "Overton", "longitude": -1.26035729771145, "postcode": "RG25 3JJ"}, {"latitude": 52.9679595936112, "code": "WTC", "name": "Whitchurch (Shropshire)", "longitude": -2.67244147375486, "postcode": "SY13 1RL"}, {"latitude": 52.4241853460593, "code": "BME", "name": "Broome", "longitude": -2.88410386700344, "postcode": "SY7 0NT"}, {"latitude": 58.450687729017, "code": "FRS", "name": "Forsinard", "longitude": -3.89229747680451, "postcode": "KW13 6YT"}, {"latitude": 56.7029494589093, "code": "PIT", "name": "Pitlochry", "longitude": -3.73470942420936, "postcode": "PH16 5BN"}, {"latitude": 54.0332766062265, "code": "HHB", "name": "Heysham Port", "longitude": -2.91378942267638, "postcode": "LA3 2XE"}, {"latitude": 51.5334757784662, "code": "FZP", "name": "Furze Platt", "longitude": -0.72906565621995, "postcode": "SL6 7SQ"}, {"latitude": 52.5472417934567, "code": "CSY", "name": "Coseley", "longitude": -2.0857672126297, "postcode": "WV14 8XR"}, {"code": "EDB", "name": "Waverley (Edinburgh)", "postcode": "EH1 1BG"}, {"latitude": 53.4473271705029, "code": "BOT", "name": "Bootle Oriel Road", "longitude": -2.99547931146863, "postcode": "L20 7AD"}, {"latitude": 55.8651801020294, "code": "ADR", "name": "Airdrie", "longitude": -3.98230269053603, "postcode": "ML6 0AN"}, {"latitude": 51.5372677400197, "code": "KBN", "name": "Kilburn High Road", "longitude": -0.191113102026995, "postcode": "NW6 5UD"}, {"latitude": 53.3883252272526, "code": "BKC", "name": "Birkenhead Central", "longitude": -3.02086646947072, "postcode": "CH41 9DB"}, {"latitude": 53.4738257223786, "code": "DGT", "name": "Deansgate", "longitude": -2.25129016652139, "postcode": "M3 4LG"}, {"latitude": 55.12212213363, "code": "LOC", "name": "Lockerbie", "longitude": -3.35274909804359, "postcode": "DG11 2HE"}, {"code": "HGT", "name": "Harrogate", "postcode": "HG1 1TF"}, {"code": "CTF", "name": "Catford", "postcode": "SE6 4RH"}, {"latitude": 51.1632138916308, "code": "MLF", "name": "Milford (Surrey)", "longitude": -0.638767800852875, "postcode": "GU8 5AD"}, {"latitude": 54.9575044467609, "code": "MCE", "name": "Metro Centre (Gateshead)", "longitude": -1.67008690825172, "postcode": "NE11 9XG"}, {"latitude": 51.6917521302252, "code": "LLH", "name": "Llangennech", "longitude": -4.07946471357196, "postcode": "SA14 8UY"}, {"latitude": 51.3921857687978, "code": "SRS", "name": "Selhurst", "longitude": -0.0898990333809656, "postcode": "SE25 5EG"}, {"latitude": 52.1943029971329, "code": "SAV", "name": "Stratford-upon-Avon", "longitude": -1.71612735607965, "postcode": "CV37 6PL"}, {"latitude": 51.8565758092925, "code": "WIV", "name": "Wivenhoe", "longitude": 0.955995510234052, "postcode": "CO7 9DJ"}, {"latitude": 51.6656997809972, "code": "NBE", "name": "Newbridge", "longitude": -3.14218864278777, "postcode": "NP11 5FH"}, {"latitude": 53.9767830311244, "code": "GGV", "name": "Gargrave", "longitude": -2.10441942139864, "postcode": "BD23 3PD"}, {"latitude": 51.5284321946318, "code": "WEH", "name": "West Ham", "longitude": 0.0065675856975797, "postcode": "E15 3BW"}, {"latitude": 51.3987516949705, "code": "BRS", "name": "Berrylands", "longitude": -0.280408354956523, "postcode": "KT5 8LT"}, {"latitude": 54.3319633107492, "code": "KEN", "name": "Kendal", "longitude": -2.73973684086086, "postcode": "LA9 6SA"}, {"code": "SHP", "name": "Shepperton", "postcode": "TW17 8DN"}, {"latitude": 51.905258820353, "code": "LEA", "name": "Leagrave", "longitude": -0.458644566495796, "postcode": "LU4 9BA"}, {"latitude": 56.080293428096, "code": "GCH", "name": "Garelochhead", "longitude": -4.82648813663188, "postcode": "G84 0DB"}, {"code": "SBY", "name": "Selby", "postcode": "YO8 4NP"}, {"latitude": 51.4539933846984, "code": "NDL", "name": "North Dulwich", "longitude": -0.0866436751693507, "postcode": "SE22 8TB"}, {"code": "CYS", "name": "Cathays", "postcode": "CF10 3LU"}, {"latitude": 51.8576575845958, "code": "WAS", "name": "Watton-at-Stone", "longitude": -0.119884831264857, "postcode": "SG14 3HF"}, {"latitude": 55.7727643240229, "code": "HNC", "name": "Hamilton Central", "longitude": -4.03907031337991, "postcode": "ML3 6QL"}, {"latitude": 51.4978572665854, "code": "WGV", "name": "Wargrave", "longitude": -0.876005525015999, "postcode": "RG10 8EX"}, {"latitude": 53.040393482839, "code": "RKT", "name": "Ruskington", "longitude": -0.380205578313918, "postcode": "NG34 9ED"}, {"latitude": 51.6764487849314, "code": "KEM", "name": "Kemble", "longitude": -2.02241211175999, "postcode": "GL7 6AU"}, {"latitude": 56.0846519322542, "code": "DFL", "name": "Dunfermline Queen Margaret", "longitude": -3.40633548576255, "postcode": "KY12 0TY"}, {"latitude": 53.1624413098708, "code": "BCK", "name": "Buckley", "longitude": -3.05541792075396, "postcode": "CH7 3AY"}, {"latitude": 50.9634953561393, "code": "WVF", "name": "Wivelsfield", "longitude": -0.120266882816627, "postcode": "RH15 0PX"}, {"latitude": 54.2798673215976, "code": "SCA", "name": "Scarborough", "longitude": -0.405362184237699, "postcode": "YO11 1TN"}, {"latitude": 51.3968369271114, "code": "SOO", "name": "Strood (Kent)", "longitude": 0.500045107759785, "postcode": "ME2 4BG"}, {"latitude": 52.8939421719343, "code": "TYG", "name": "Tygwyn", "longitude": -4.07818715163326, "postcode": "LL47 6TF"}, {"latitude": 51.169816701045, "code": "GRT", "name": "Grateley", "longitude": -1.62058987893728, "postcode": "SP11 7DX"}, {"latitude": 51.197153345647, "code": "FNC", "name": "Farncombe", "longitude": -0.605321738276173, "postcode": "GU7 3NF"}, {"latitude": 56.4568292647279, "code": "ING", "name": "Invergowrie", "longitude": -3.05826802890801, "postcode": "DD2 5AP"}, {"latitude": 51.4561271301538, "code": "ELW", "name": "Eltham", "longitude": 0.0529979136688073, "postcode": "SE9 1SA"}, {"latitude": 51.9991497053055, "code": "ASC", "name": "Ashchurch for Tewkesbury", "longitude": -2.10749357073423, "postcode": "GL20 8JU"}, {"latitude": 51.5673808391106, "code": "CTH", "name": "Chadwell Heath", "longitude": 0.128437107897762, "postcode": "RM8 1TE"}, {"latitude": 51.5187042500143, "code": "MAI", "name": "Maidenhead", "longitude": -0.722645114652493, "postcode": "SL6 1EW"}, {"latitude": 56.4011687945134, "code": "DAL", "name": "Dalmally", "longitude": -4.98356753500473, "postcode": "PA33 1AA"}, {"latitude": 51.4181703504502, "code": "CYP", "name": "Crystal Palace", "longitude": -0.0726072290552946, "postcode": "SE19 2AZ"}, {"latitude": 51.366532934562, "code": "RAI", "name": "Rainham (Kent)", "longitude": 0.611924841572804, "postcode": "ME8 7SG"}, {"latitude": 56.394497949146, "code": "FOC", "name": "Falls of Cruachan", "longitude": -5.11619184527471, "postcode": "PA33 1AN"}, {"latitude": 56.8741008415091, "code": "LAU", "name": "Laurencekirk", "longitude": -2.41168215690971, "postcode": "AB30 1NN"}, {"latitude": 53.4060531793286, "code": "PDG", "name": "Padgate", "longitude": -2.55657376427025, "postcode": "WA2 0QT"}, {"latitude": 56.4000050547798, "code": "LHA", "name": "Loch Awe", "longitude": -5.04581957862772, "postcode": "PA33 1AQ"}, {"latitude": 51.9036786750336, "code": "BCS", "name": "Bicester North", "longitude": -1.15258919281936, "postcode": "OX26 6EF"}, {"latitude": 51.4973248390063, "code": "KPA", "name": "Kensington (Olympia)", "longitude": -0.208787400113315, "postcode": "W14 8HW"}, {"latitude": 54.6897460316183, "code": "FLM", "name": "Flimby", "longitude": -3.51993600147854, "postcode": "CA15 8QQ"}, {"latitude": 51.4311939138471, "code": "GRP", "name": "Grove Park", "longitude": 0.0222580797759027, "postcode": "SE12 9TJ"}, {"latitude": 54.9659108957927, "code": "PRU", "name": "Prudhoe", "longitude": -1.86527158398993, "postcode": "NE42 6NR"}, {"latitude": 52.4836095794458, "code": "BSW", "name": "Birmingham Snow Hill", "longitude": -1.90048700682694, "postcode": "B3 2DX"}, {"latitude": 53.0879906624768, "code": "CRE", "name": "Crewe", "longitude": -2.43062351823818, "postcode": "CW1 6AR"}, {"latitude": 53.0465336241436, "code": "ROL", "name": "Rolleston", "longitude": -1.06617936453872, "postcode": "NG25 0SG"}, {"latitude": 55.9838575338169, "code": "PMT", "name": "Polmont", "longitude": -3.71523910725629, "postcode": "FK2 0UF"}, {"code": "BDQ", "name": "Bradford Forster Square", "postcode": "BD1 4HY"}, {"code": "WAT", "name": "Waterloo (London)", "postcode": "SE1 7NS"}, {"latitude": 51.6210034808868, "code": "TNP", "name": "Tonypandy", "longitude": -3.44993490542937, "postcode": "CF40 2NP"}, {"latitude": 51.4682006382904, "code": "DMK", "name": "Denmark Hill", "longitude": -0.0909878658745187, "postcode": "SE5 8AQ"}, {"latitude": 51.2790786260061, "code": "HSY", "name": "Horsley", "longitude": -0.435589811583298, "postcode": "KT24 6QX"}, {"latitude": 53.4338179336949, "code": "MAU", "name": "Mauldeth Road", "longitude": -2.20933047930234, "postcode": "M14 6SE"}, {"latitude": 53.5731347053189, "code": "DBD", "name": "Denby Dale", "longitude": -1.6629498101604, "postcode": "HD8 8QE"}, {"latitude": 51.5917551671048, "code": "TRF", "name": "Treforest", "longitude": -3.32418847233803, "postcode": "CF37 1SY"}, {"latitude": 53.9970153030451, "code": "HMM", "name": "Hammerton", "longitude": -1.28441953410927, "postcode": "YO26 8DN"}, {"latitude": 56.4977913775798, "code": "GOF", "name": "Golf Street", "longitude": -2.71900779187785, "postcode": "DD7 7JF"}, {"latitude": 53.999237293312, "code": "CTL", "name": "Cattal", "longitude": -1.31879729832104, "postcode": "YO26 8DS"}, {"latitude": 51.5392958280949, "code": "SOE", "name": "Southend East", "longitude": 0.731329435878008, "postcode": "SS1 2QY"}, {"latitude": 51.203381151036, "code": "WAM", "name": "Walmer", "longitude": 1.38287887690123, "postcode": "CT14 7RN"}, {"latitude": 51.3593390620361, "code": "WOR", "name": "Worle", "longitude": -2.90898719472354, "postcode": "BS22 6BW"}, {"latitude": 51.563097694024, "code": "UHL", "name": "Upper Holloway", "longitude": -0.129419490296522, "postcode": "N19 4DL"}, {"latitude": 57.5796791315922, "code": "ACN", "name": "Achnasheen", "longitude": -5.07546128815818, "postcode": "IV22 2EE"}, {"latitude": 56.03525380693, "code": "INK", "name": "Inverkeithing", "longitude": -3.39563040444237, "postcode": "KY11 1NJ"}, {"latitude": 51.5079725463035, "code": "IVR", "name": "Iver", "longitude": -0.506815381460998, "postcode": "SL0 9AT"}, {"latitude": 57.2811715065662, "code": "CAG", "name": "Carrbridge", "longitude": -3.83049265870968, "postcode": "PH23 3AZ"}, {"latitude": 50.8579433523535, "code": "HGS", "name": "Hastings", "longitude": 0.57813715748277, "postcode": "TN34 1BA"}, {"latitude": 50.7944707266942, "code": "NVN", "name": "Newhaven Town", "longitude": 0.0557800689307076, "postcode": "BN9 0AS"}, {"latitude": 53.4655843624116, "code": "HYT", "name": "Hyde North", "longitude": -2.08402769163084, "postcode": "SK16 5LJ"}, {"latitude": 50.744415325363, "code": "CBK", "name": "Cranbrook", "longitude": -3.41492885356403, "postcode": "EX5 2DY"}, {"latitude": 53.5505809398205, "code": "FNW", "name": "Farnworth", "longitude": -2.38797597383848, "postcode": "BL4 7SA"}, {"latitude": 54.694201808147, "code": "LGW", "name": "Langwathby", "longitude": -2.66468996547463, "postcode": "CA10 1NA"}, {"latitude": 53.1436621747409, "code": "CLM", "name": "Collingham", "longitude": -0.752005986938966, "postcode": "NG23 7RB"}, {"latitude": 51.5153297078552, "code": "RDR", "name": "Radyr", "longitude": -3.23205527508125, "postcode": "CF14 2TJ"}, {"latitude": 52.0538444781384, "code": "MLB", "name": "Millbrook (Bedfordshire)", "longitude": -0.532673663406039, "postcode": "MK45 2JH"}, {"latitude": 50.860604117805, "code": "GLY", "name": "Glynde", "longitude": 0.0698565955475572, "postcode": "BN8 6SS"}, {"latitude": 55.6916189633032, "code": "SOI", "name": "Stow", "longitude": -2.86545444795201, "postcode": "TD1 2SQ"}, {"latitude": 55.9065825679835, "code": "INP", "name": "Inverkip", "longitude": -4.87395054340127, "postcode": "PA16 0BE"}, {"latitude": 51.8801677152403, "code": "MKT", "name": "Marks Tey", "longitude": 0.785386941434517, "postcode": "CO6 1ED"}, {"code": "MST", "name": "Maesteg", "postcode": "CF34 9BN"}, {"latitude": 51.5409673157405, "code": "SOH", "name": "South Hampstead", "longitude": -0.177987762377016, "postcode": "NW8 0DR"}, {"latitude": 51.7114963690871, "code": "TRD", "name": "Troed-y-rhiw", "longitude": -3.34654320250173, "postcode": "CF48 4DY"}, {"latitude": 53.5046000474852, "code": "DNN", "name": "Dean Lane", "longitude": -2.18323479589201, "postcode": "M40 3AN"}, {"latitude": 53.6039800638357, "code": "TNS", "name": "Thorne South", "longitude": -0.955486142074609, "postcode": "DN8 5PA"}, {"latitude": 51.3957933967176, "code": "ELE", "name": "Elmers End", "longitude": -0.0485206847577175, "postcode": "BR3 4DW"}, {"latitude": 51.1515287681479, "code": "OLY", "name": "Ockley", "longitude": -0.336013059687842, "postcode": "RH5 5HT"}, {"latitude": 51.2268483716175, "code": "FRO", "name": "Frome", "longitude": -2.31059567501888, "postcode": "BA11 1RE"}, {"latitude": 51.257450643903, "code": "CRT", "name": "Chartham", "longitude": 1.01806588368871, "postcode": "CT4 7HU"}, {"latitude": 51.6731650449156, "code": "TUR", "name": "Turkey Street", "longitude": -0.0476996719158698, "postcode": "EN1 4QG"}, {"latitude": 51.4664702779542, "code": "GTN", "name": "Grangetown", "longitude": -3.18822622240167, "postcode": "CF11 7JD"}, {"latitude": 53.452019125436, "code": "HYC", "name": "Hyde Central", "longitude": -2.08631978302047, "postcode": "SK14 1BW"}, {"code": "PTG", "name": "Port Glasgow", "postcode": "PA14 5JN"}, {"latitude": 51.6096918709314, "code": "TRH", "name": "Trehafod", "longitude": -3.3813221800873, "postcode": "CF37 2LL"}, {"latitude": 52.4477514368469, "code": "LAK", "name": "Lakenheath", "longitude": 0.533819782509215, "postcode": "IP27 9AD"}, {"latitude": 52.6960328750754, "code": "FRB", "name": "Fairbourne", "longitude": -4.04968001145361, "postcode": "LL38 2AQ"}, {"latitude": 53.2670049604205, "code": "SXY", "name": "Saxilby", "longitude": -0.663131129907897, "postcode": "LN1 2PX"}, {"latitude": 50.9507264136276, "code": "SOA", "name": "Southampton Airport Parkway", "longitude": -1.36316939140619, "postcode": "SO18 2HW"}, {"latitude": 53.7462664253358, "code": "BBN", "name": "Blackburn", "longitude": -2.47921051008884, "postcode": "BB1 1EY"}, {"latitude": 52.447239531246, "code": "SBJ", "name": "Stourbridge Junction", "longitude": -2.13253673221072, "postcode": "DY9 0YQ"}, {"latitude": 51.7012570506231, "code": "LTH", "name": "Llanhilleth", "longitude": -3.13894539754779, "postcode": "NP13 2HT"}, {"latitude": 51.7700634369072, "code": "EBB", "name": "Ebbw Vale Town", "longitude": -3.20182156289382, "postcode": "NP23 6DN"}, {"latitude": 53.6757067362233, "code": "SHC", "name": "Streethouse", "longitude": -1.3985656760167, "postcode": "WF7 6BY"}, {"latitude": 53.5644827010269, "code": "KKS", "name": "Kirk Sandall", "longitude": -1.07434990898294, "postcode": "DN3 1SE"}, {"latitude": 54.5415183095362, "code": "CKL", "name": "Corkickle", "longitude": -3.58242114639306, "postcode": "CA28 7TQ"}, {"latitude": 53.5288996062327, "code": "UPL", "name": "Upholland", "longitude": -2.7434810971344, "postcode": "WN8 9QB"}, {"latitude": 55.5689247634613, "code": "NTN", "name": "Newton (Lanark)", "longitude": -3.65442554201728, "postcode": "ML12 6HT"}, {"latitude": 53.5602554899997, "code": "GST", "name": "Gathurst", "longitude": -2.69656637477872, "postcode": "WN6 8JB"}, {"latitude": 53.974838641598, "code": "POP", "name": "Poppleton", "longitude": -1.14875553184152, "postcode": "YO26 6QA"}, {"latitude": 53.4449748222415, "code": "GLO", "name": "Glossop", "longitude": -1.94963040878308, "postcode": "SK13 7DD"}, {"latitude": 51.4073891129133, "code": "MDS", "name": "Morden South", "longitude": -0.163373539230839, "postcode": "SM4 5HA"}, {"latitude": 56.0576830654324, "code": "BTS", "name": "Burntisland", "longitude": -3.23447001712036, "postcode": "KY3 9DU"}, {"latitude": 51.4211429127008, "code": "WIM", "name": "Wimbledon", "longitude": -0.206603927897025, "postcode": "SW19 7NL"}, {"latitude": 54.3764470817668, "code": "SVL", "name": "Staveley", "longitude": -2.81829610862587, "postcode": "LA8 9NB"}, {"latitude": 53.5385630193297, "code": "GNF", "name": "Greenfield", "longitude": -2.01381341916079, "postcode": "OL3 7JZ"}, {"latitude": 51.5771941893621, "code": "BNE", "name": "Bourne End", "longitude": -0.710918742273463, "postcode": "SL8 5YP"}, {"latitude": 53.5714978718244, "code": "AWK", "name": "Adwick", "longitude": -1.18354344665325, "postcode": "DN6 7AQ"}, {"latitude": 52.2509017088113, "code": "TRS", "name": "Thurston", "longitude": 0.808944079372139, "postcode": "IP31 3NZ"}, {"latitude": 53.3370512586423, "code": "KVP", "name": "Kiveton Park", "longitude": -1.23895259479386, "postcode": "S26 6NP"}, {"latitude": 51.7167033276994, "code": "CDU", "name": "Cam and Dursley", "longitude": -2.35633993947122, "postcode": "GL11 5DW"}, {"latitude": 52.073282978496, "code": "SWR", "name": "Stewartby", "longitude": -0.52541213307315, "postcode": "MK43 9LY"}, {"latitude": 55.9183392657251, "code": "UHA", "name": "Uphall", "longitude": -3.50266882048468, "postcode": "EH54 5QE"}, {"latitude": 55.8554479984618, "code": "CAY", "name": "Carntyne", "longitude": -4.17887669837034, "postcode": "G32 6AS"}, {"latitude": 54.5358711597418, "code": "NRD", "name": "North Road", "longitude": -1.55480341446441, "postcode": "DL3 6ST"}, {"latitude": 52.3952658402923, "code": "BRP", "name": "Brampton (Suffolk)", "longitude": 1.54331204241679, "postcode": "NR34 8EF"}, {"latitude": 51.7631865255083, "code": "BKM", "name": "Berkhamsted", "longitude": -0.562706839748749, "postcode": "HP4 2JU"}, {"latitude": 50.8435766699765, "code": "BOH", "name": "Bosham", "longitude": -0.847638059012613, "postcode": "PO18 8NH"}, {"latitude": 51.5035377904305, "code": "HAY", "name": "Hayes and Harlington", "longitude": -0.420207158167425, "postcode": "UB3 4BX"}, {"latitude": 54.5803041941733, "code": "APP", "name": "Appleby", "longitude": -2.48661469149156, "postcode": "CA16 6TT"}, {"latitude": 51.280051409164, "code": "HOK", "name": "Hook", "longitude": -0.961562914878699, "postcode": "RG27 9HS"}, {"latitude": 51.4405218424937, "code": "MTG", "name": "Mottingham", "longitude": 0.0505856486172684, "postcode": "SE9 4EN"}, {"latitude": 53.4302989942945, "code": "ECL", "name": "Eccleston Park", "longitude": -2.78074035884389, "postcode": "L35 7LP"}, {"latitude": 55.945687357378, "code": "GKC", "name": "Greenock Central", "longitude": -4.75265944073094, "postcode": "PA15 1DH"}, {"latitude": 56.0696309883114, "code": "KGH", "name": "Kinghorn", "longitude": -3.17395462298149, "postcode": "KY3 9RA"}, {"latitude": 50.9245431103066, "code": "HSK", "name": "Hassocks", "longitude": -0.145998575843651, "postcode": "BN6 8JD"}, {"latitude": 50.9076468682262, "code": "SOU", "name": "Southampton Central", "longitude": -1.41359353169837, "postcode": "SO15 1GP"}, {"latitude": 52.2954857229019, "code": "HTN", "name": "Hatton", "longitude": -1.67300312709499, "postcode": "CV35 7LE"}, {"code": "ACT", "name": "Ascot", "postcode": "SL5 9DW"}, {"latitude": 53.812348613353, "code": "BUY", "name": "Burley Park", "longitude": -1.57859978688009, "postcode": "LS4 2LX"}, {"latitude": 53.4064348697795, "code": "BGE", "name": "Broad Green", "longitude": -2.89342270671712, "postcode": "L14 3NG"}, {"latitude": 53.4361515263434, "code": "THH", "name": "Thatto Heath", "longitude": -2.75969832752656, "postcode": "WA9 5NY"}, {"latitude": 55.8329811767874, "code": "CMY", "name": "Crossmyloof", "longitude": -4.28477253532048, "postcode": "G41 3RY"}, {"latitude": 52.4790391067593, "code": "BEH", "name": "Bedworth", "longitude": -1.46792540896746, "postcode": "CV12 8JF"}, {"code": "LEW", "name": "Lewisham", "postcode": "SE13 7SA"}, {"latitude": 55.9467703360145, "code": "DLR", "name": "Dalreoch", "longitude": -4.57932648370443, "postcode": "G82 4JT"}, {"latitude": 51.264031743894, "code": "MHM", "name": "Merstham", "longitude": -0.151104903972581, "postcode": "RH1 3AP"}, {"latitude": 55.9397612306746, "code": "MLN", "name": "Milngavie", "longitude": -4.31559029352029, "postcode": "G62 6NB"}, {"code": "LLI", "name": "Llandybie", "postcode": "SA18 3UN"}, {"latitude": 53.2132248846445, "code": "SHT", "name": "Shotton", "longitude": -3.03871099890039, "postcode": "CH5 1DL"}, {"latitude": 54.9467084329337, "code": "SKS", "name": "Stocksfield", "longitude": -1.91665084565378, "postcode": "NE43 7NH"}, {"latitude": 57.8137733538628, "code": "TAI", "name": "Tain", "longitude": -4.05181099445787, "postcode": "IV19 1JA"}, {"latitude": 52.7775870137899, "code": "LBO", "name": "Loughborough", "longitude": -1.1957314337749, "postcode": "LE11 1ET"}, {"latitude": 51.4999292486316, "code": "NWW", "name": "North Woolwich", "longitude": 0.0628327570927449, "postcode": "E16 2JD"}, {"latitude": 57.1880191281295, "code": "AVM", "name": "Aviemore", "longitude": -3.82790016277523, "postcode": "PH22 1PY"}, {"latitude": 50.8359404816312, "code": "HOV", "name": "Hove", "longitude": -0.170502801523989, "postcode": "BN3 6HW"}, {"latitude": 53.7276640037574, "code": "BUH", "name": "Brough", "longitude": -0.57898848091643, "postcode": "HU15 1EB"}, {"latitude": 51.4756266825775, "code": "NNP", "name": "Ninian Park", "longitude": -3.20120745872352, "postcode": "CF11 8AH"}, {"latitude": 53.696576561346, "code": "WDN", "name": "Walsden", "longitude": -2.10404100665508, "postcode": "OL14 6RR"}, {"latitude": 51.5622181215931, "code": "CPT", "name": "Clapton", "longitude": -0.0554130641077865, "postcode": "E5 9RD"}, {"latitude": 51.0192006462075, "code": "SOG", "name": "Stonegate", "longitude": 0.368320856757888, "postcode": "TN5 7ER"}, {"latitude": 54.6867329529883, "code": "HPL", "name": "Hartlepool", "longitude": -1.20793724048583, "postcode": "TS24 7ED"}, {"latitude": 53.0603857657584, "code": "AMB", "name": "Ambergate", "longitude": -1.47944576019387, "postcode": "DE56 2EN"}, {"latitude": 51.533040940118, "code": "SGN", "name": "South Greenford", "longitude": -0.335014448002606, "postcode": "UB6 8EL"}, {"latitude": 52.551882441393, "code": "TAB", "name": "Tame Bridge Parkway", "longitude": -1.97677271428132, "postcode": "B71 3NP"}, {"latitude": 53.6730576589714, "code": "BSV", "name": "Buckshaw Parkway", "longitude": -2.6589033742435, "postcode": "PR7 7EY"}, {"code": "ACB", "name": "Acton Bridge", "postcode": "CW8 2RE"}, {"latitude": 54.2112377806487, "code": "MLM", "name": "Millom", "longitude": -3.2704838554246, "postcode": "LA18 5AA"}, {"latitude": 51.3182844709525, "code": "CSD", "name": "Cobham & Stoke d'Abernon", "longitude": -0.38905288933666, "postcode": "KT11 3BT"}, {"latitude": 51.5398951352355, "code": "SRR", "name": "Sarn", "longitude": -3.58949195455289, "postcode": "CF32 9NB"}, {"latitude": 52.4780696169626, "code": "OUN", "name": "Oulton Broad North", "longitude": 1.71517718042397, "postcode": "NR32 3LJ"}, {"latitude": 51.1822209786629, "code": "PDW", "name": "Paddock Wood", "longitude": 0.38907480248513, "postcode": "TN12 6ER"}, {"latitude": 51.3643157110132, "code": "EWW", "name": "Ewell West", "longitude": -0.233633164901559, "postcode": "KT17 2DH"}, {"latitude": 55.6112441798801, "code": "IRV", "name": "Irvine", "longitude": -4.67453620070516, "postcode": "KA12 8NU"}, {"latitude": 57.9877924381211, "code": "ROG", "name": "Rogart", "longitude": -4.15451002336194, "postcode": "IV28 3XA"}, {"latitude": 51.5823924396282, "code": "RFD", "name": "Rochford", "longitude": 0.702256164430332, "postcode": "SS4 1AU"}, {"latitude": 53.360695769334, "code": "LPY", "name": "Liverpool South Parkway", "longitude": -2.8878823252371, "postcode": "L19 5NE"}, {"latitude": 51.298544766542, "code": "LHD", "name": "Leatherhead", "longitude": -0.333084032782666, "postcode": "KT22 7SQ"}, {"latitude": 51.4069595576009, "code": "MAO", "name": "Martins Heron", "longitude": -0.725041863929817, "postcode": "RG12 9YY"}, {"code": "BMD", "name": "Brimsdown", "postcode": "EN3 7JL"}, {"latitude": 50.8521990888941, "code": "SLQ", "name": "St Leonards Warrior Square", "longitude": 0.539457220238024, "postcode": "TN38 0AZ"}, {"latitude": 55.9201528101275, "code": "HLF", "name": "Hillfoot", "longitude": -4.31928612406474, "postcode": "G61 2BT"}, {"code": "WBP", "name": "West Brompton", "postcode": "SW6 1RT"}, {"latitude": 55.8530835036082, "code": "WFF", "name": "Whifflet", "longitude": -4.01769758788293, "postcode": "ML5 4EE"}, {"latitude": 51.7991493917345, "code": "HFE", "name": "Hertford East", "longitude": -0.07289296501609, "postcode": "SG14 1SB"}, {"latitude": 50.7869591554594, "code": "BOG", "name": "Bognor Regis", "longitude": -0.676620939428086, "postcode": "PO21 1BS"}, {"latitude": 52.7237286848741, "code": "PKG", "name": "Penkridge", "longitude": -2.11658496908838, "postcode": "ST19 5AJ"}, {"latitude": 55.8192820811454, "code": "CBL", "name": "Cambuslang", "longitude": -4.17385302931159, "postcode": "G72 8AT"}, {"latitude": 53.5182076414423, "code": "BTD", "name": "Bolton-upon-Dearne", "longitude": -1.31270436258162, "postcode": "S63 8JB"}, {"latitude": 55.820608039701, "code": "LGS", "name": "Langside", "longitude": -4.27735795449048, "postcode": "G43 2EP"}, {"latitude": 53.7376070278476, "code": "HBD", "name": "Hebden Bridge", "longitude": -2.00975631362488, "postcode": "HX7 6JD"}, {"latitude": 51.0753782117528, "code": "BNP", "name": "Barnstaple", "longitude": -4.06052489408928, "postcode": "EX31 2BP"}, {"latitude": 51.4589050461977, "code": "WRY", "name": "Wraysbury", "longitude": -0.541322369371954, "postcode": "TW19 5NJ"}, {"latitude": 53.8486245479543, "code": "BIY", "name": "Bingley", "longitude": -1.83741366108839, "postcode": "BD16 2NA"}, {"latitude": 54.951470043316, "code": "HEW", "name": "Heworth", "longitude": -1.55570490603838, "postcode": "NE10 0LW"}, {"latitude": 54.587832629741, "code": "MSK", "name": "Marske", "longitude": -1.01913192476555, "postcode": "TS11 6JH"}, {"latitude": 51.5591513410594, "code": "REC", "name": "Rectory Road", "longitude": -0.069004000507943, "postcode": "N16 7SQ"}, {"latitude": 52.9875394964019, "code": "ANC", "name": "Ancaster", "longitude": -0.534630576717181, "postcode": "NG32 3QU"}, {"latitude": 51.2707390211192, "code": "MDW", "name": "Maidstone West", "longitude": 0.515931840677601, "postcode": "ME16 8RJ"}, {"latitude": 51.5075906242781, "code": "CHX", "name": "London Charing Cross", "longitude": -0.123451080144516, "postcode": "WC2N 6NN"}, {"latitude": 55.8973632185325, "code": "MYH", "name": "Maryhill", "longitude": -4.30045799625341, "postcode": "G20 0BT"}, {"latitude": 53.5307521815023, "code": "PEM", "name": "Pemberton", "longitude": -2.66874548242981, "postcode": "WN5 8DE"}, {"latitude": 51.384533472497, "code": "MAL", "name": "Malden Manor", "longitude": -0.262661027843888, "postcode": "KT3 5PN"}, {"latitude": 52.5264801587372, "code": "NUN", "name": "Nuneaton", "longitude": -1.46409510012725, "postcode": "CV11 4BU"}, {"latitude": 51.744289847558, "code": "SAA", "name": "St Albans Abbey", "longitude": -0.342440058691933, "postcode": "AL1 2PS"}, {"latitude": 51.4686702235967, "code": "RDA", "name": "Redland", "longitude": -2.5985948202254, "postcode": "BS6 6QP"}, {"latitude": 51.6710663818287, "code": "ENL", "name": "Enfield Lock", "longitude": -0.0291913916598734, "postcode": "EN3 6AA"}, {"latitude": 54.8898040306777, "code": "CAR", "name": "Carlisle", "longitude": -2.93399871376613, "postcode": "CA2 5AF"}, {"latitude": 51.9389477779578, "code": "WRB", "name": "Wrabness", "longitude": 1.17084734930927, "postcode": "CO11 2TJ"}, {"code": "MHS", "name": "Meadowhall", "postcode": "S4 7YU"}, {"latitude": 51.0653503800275, "code": "HRH", "name": "Horsham", "longitude": -0.318439005173529, "postcode": "RH13 5RB"}, {"latitude": 51.2942461488436, "code": "KND", "name": "Kingswood", "longitude": -0.21120873104579, "postcode": "KT20 6HS"}, {"latitude": 53.2931855034609, "code": "PRB", "name": "Prestbury", "longitude": -2.14666726650854, "postcode": "SK10 4HT"}, {"latitude": 51.5689234333302, "code": "EMP", "name": "Emerson Park", "longitude": 0.221786519810548, "postcode": "RM11 3HS"}, {"latitude": 51.5219834728581, "code": "OCK", "name": "Ockendon", "longitude": 0.290339012210205, "postcode": "RM15 6PD"}, {"latitude": 52.6267381149632, "code": "NRW", "name": "Norwich", "longitude": 1.30674456853453, "postcode": "NR1 1EF"}, {"latitude": 52.8971781101661, "code": "UTT", "name": "Uttoxeter", "longitude": -1.85664410311239, "postcode": "ST14 8AX"}, {"latitude": 50.8217872652403, "code": "EWR", "name": "East Worthing", "longitude": -0.355485015095936, "postcode": "BN14 8ED"}, {"latitude": 54.5835218852754, "code": "SLB", "name": "Saltburn", "longitude": -0.973976488306271, "postcode": "TS12 1AQ"}, {"latitude": 51.9247624314175, "code": "CWC", "name": "Chappel and Wakes Colne", "longitude": 0.756132944912152, "postcode": "CO6 2DS"}, {"latitude": 52.8101343927895, "code": "YRT", "name": "Yorton", "longitude": -2.73695612523159, "postcode": "SY4 3EP"}, {"latitude": 54.4557412295262, "code": "BTT", "name": "Battersby", "longitude": -1.09448006859959, "postcode": "TS9 6LS"}, {"latitude": 53.3687879870288, "code": "WSA", "name": "West Allerton", "longitude": -2.90790432715118, "postcode": "L19 7NL"}, {"latitude": 50.9900117999224, "code": "BXD", "name": "Buxted", "longitude": 0.132863944616033, "postcode": "TN22 4LA"}, {"latitude": 52.4889428536817, "code": "COR", "name": "Corby", "longitude": -0.686093994509086, "postcode": "NN17 1UJ"}, {"latitude": 57.9159477073213, "code": "CUA", "name": "Culrain", "longitude": -4.41586886120678, "postcode": "IV24 3DW"}, {"code": "PLD", "name": "Portslade", "postcode": "BN3 7HD"}, {"latitude": 53.4574446961988, "code": "DTN", "name": "Denton", "longitude": -2.12986942877928, "postcode": "M34 3WE"}, {"latitude": 51.7374588559766, "code": "WMG", "name": "Welham Green", "longitude": -0.214370156267324, "postcode": "AL9 7HF"}, {"latitude": 51.5775383354876, "code": "HGY", "name": "Harringay", "longitude": -0.105244041927578, "postcode": "N4 1RE"}, {"latitude": 56.8427133677253, "code": "CPA", "name": "Corpach", "longitude": -5.1224727676763, "postcode": "PH33 7JH"}, {"latitude": 51.3008652535019, "code": "STU", "name": "Sturry", "longitude": 1.12301642040734, "postcode": "CT2 0BH"}, {"code": "MAC", "name": "Macclesfield", "postcode": "SK10 1JD"}, {"latitude": 50.8274438533513, "code": "LAC", "name": "Lancing", "longitude": -0.323877266028394, "postcode": "BN15 9HH"}, {"latitude": 51.3399964138382, "code": "AVF", "name": "Avoncliff", "longitude": -2.28055246029126, "postcode": "BA15 2HA"}, {"latitude": 53.5448899365737, "code": "BYK", "name": "Bentley (South Yorkshire)", "longitude": -1.15102006850366, "postcode": "DN5 0BE"}, {"latitude": 54.488991681455, "code": "GTA", "name": "Great Ayton", "longitude": -1.11353620591559, "postcode": "TS9 6HG"}, {"latitude": 50.7987530810898, "code": "PMS", "name": "Portsmouth & Southsea", "longitude": -1.09050880468863, "postcode": "PO1 1EQ"}, {"latitude": 51.4476177263107, "code": "DFD", "name": "Dartford", "longitude": 0.217964593728244, "postcode": "DA1 1BP"}, {"latitude": 51.2231135753161, "code": "DEA", "name": "Deal", "longitude": 1.39787804928975, "postcode": "CT14 9ST"}, {"latitude": 52.9055146941497, "code": "PNC", "name": "Penychain", "longitude": -4.33960761008379, "postcode": "LL53 6HJ"}, {"latitude": 54.3212763440717, "code": "GSD", "name": "Garsdale", "longitude": -2.32747489262827, "postcode": "LA10 5PP"}, {"latitude": 52.7734146473012, "code": "TLB", "name": "Talybont", "longitude": -4.09573043134169, "postcode": "LL43 2AR"}, {"latitude": 52.2841650496841, "code": "WRP", "name": "Warwick Parkway", "longitude": -1.62120760006395, "postcode": "CV35 8QN"}, {"latitude": 52.4207480865968, "code": "YRD", "name": "Yardley Wood", "longitude": -1.85391245097948, "postcode": "B28 0RX"}, {"latitude": 51.7469449069354, "code": "BXB", "name": "Broxbourne", "longitude": -0.0110996170468598, "postcode": "EN10 7AW"}, {"latitude": 54.2601665717124, "code": "FOX", "name": "Foxfield", "longitude": -3.2148625609582, "postcode": "LA20 6BX"}, {"code": "PGM", "name": "Pengam", "postcode": "NP12 3XX"}, {"latitude": 53.3582023286982, "code": "DSL", "name": "Disley", "longitude": -2.04246676012476, "postcode": "SK12 2AE"}, {"latitude": 55.9056039411846, "code": "WES", "name": "Westerton", "longitude": -4.33534462925943, "postcode": "G61 1PB"}, {"latitude": 53.0068572895791, "code": "LOW", "name": "Lowdham", "longitude": -0.998077962927003, "postcode": "NG14 7HH"}, {"latitude": 54.5145144582245, "code": "DND", "name": "Dinsdale", "longitude": -1.46719150325038, "postcode": "DL2 1DX"}, {"latitude": 53.4319673019992, "code": "BNT", "name": "Brinnington", "longitude": -2.1334941534952, "postcode": "SK5 8JG"}, {"code": "LOT", "name": "Lostock", "postcode": "BL6 4JP"}, {"latitude": 51.3608723511318, "code": "KML", "name": "Kemsley", "longitude": 0.73458917872429, "postcode": "ME10 2PL"}, {"latitude": 51.5137607269054, "code": "WEA", "name": "West Ealing", "longitude": -0.320455323212827, "postcode": "W13 0LJ"}, {"latitude": 51.5702047089279, "code": "SOK", "name": "South Kenton", "longitude": -0.307279503170866, "postcode": "HA9 8QS"}, {"latitude": 55.810872928328, "code": "THB", "name": "Thornliebank", "longitude": -4.31210934986883, "postcode": "G46 7RJ"}, {"latitude": 52.6662498605067, "code": "LLW", "name": "Llwyngwril", "longitude": -4.08598309716775, "postcode": "LL37 2JS"}, {"latitude": 53.3113891958815, "code": "WRK", "name": "Worksop", "longitude": -1.12262367596383, "postcode": "S81 7AG"}, {"latitude": 51.6747338878789, "code": "AMR", "name": "Amersham", "longitude": -0.608968320929075, "postcode": "HP6 5DW"}, {"latitude": 51.4109416402625, "code": "BKJ", "name": "Beckenham Junction", "longitude": -0.0257017354473697, "postcode": "BR3 1HY"}, {"latitude": 51.5646383195551, "code": "SKW", "name": "Stoke Newington", "longitude": -0.0723786461790325, "postcode": "N16 6YB"}, {"latitude": 56.120114356485, "code": "STG", "name": "Stirling", "longitude": -3.93531335156304, "postcode": "FK8 2BY"}, {"latitude": 51.1159575148197, "code": "IFI", "name": "Ifield", "longitude": -0.215573612021834, "postcode": "RH11 0JP"}, {"latitude": 51.8405080783285, "code": "CUW", "name": "Clunderwen", "longitude": -4.73114384383394, "postcode": "SA66 7NG"}, {"latitude": 51.5260883224627, "code": "PYL", "name": "Pyle", "longitude": -3.70129507882809, "postcode": "CF33 4NL"}, {"latitude": 51.6029661888581, "code": "LNB", "name": "Llanbradach", "longitude": -3.23272253350931, "postcode": "CF83 3NE"}, {"latitude": 55.8065648594668, "code": "BRR", "name": "Barrhead", "longitude": -4.3939618727674, "postcode": "G78 1GG"}, {"latitude": 51.2927857666595, "code": "BRG", "name": "Borough Green & Wrotham", "longitude": 0.306223349544353, "postcode": "TN15 8AJ"}, {"latitude": 50.1851402018707, "code": "HYL", "name": "Hayle", "longitude": -5.41945679610488, "postcode": "TR27 4NG"}, {"latitude": 51.4125167167897, "code": "ANZ", "name": "Anerley", "longitude": -0.065137096416175, "postcode": "SE20 8PY"}, {"latitude": 55.9389402571314, "code": "WNL", "name": "Whinhill", "longitude": -4.74526203600257, "postcode": "PA15 3LA"}, {"latitude": 50.7780767490092, "code": "AXM", "name": "Axminster", "longitude": -3.00491067763206, "postcode": "EX13 5PJ"}, {"latitude": 52.8299943701804, "code": "PES", "name": "Pensarn", "longitude": -4.11151720402053, "postcode": "LL45 2HU"}, {"latitude": 57.2012193139003, "code": "BDG", "name": "Bridgeton", "longitude": -2.73721386003553, "postcode": "AB33 8NT"}, {"latitude": 51.2408495771577, "code": "ADM", "name": "Adisham", "longitude": 1.19965239897793, "postcode": "CT3 3JE"}, {"latitude": 51.8539377011056, "code": "ALR", "name": "Alresford (Essex)", "longitude": 0.996604589788385, "postcode": "CO7 8AN"}, {"latitude": 51.376442311888, "code": "HYS", "name": "Hayes (Kent)", "longitude": 0.00885159337956728, "postcode": "BR2 7DL"}, {"latitude": 50.2101270703998, "code": "CBN", "name": "Camborne", "longitude": -5.29713817473229, "postcode": "TR14 7RF"}, {"latitude": 53.2513135279674, "code": "GBK", "name": "Greenbank", "longitude": -2.53245556801634, "postcode": "CW8 1JU"}, {"latitude": 52.5951034429455, "code": "MCN", "name": "Machynlleth", "longitude": -3.85464477461718, "postcode": "SY20 8TG"}, {"latitude": 51.4798109456153, "code": "SML", "name": "Sea Mills", "longitude": -2.64927026905765, "postcode": "BS9 1EA"}, {"latitude": 51.2967103212523, "code": "FNB", "name": "Farnborough Main", "longitude": -0.755493380368275, "postcode": "GU14 7NL"}, {"latitude": 52.4521690962151, "code": "BHI", "name": "Birmingham International", "longitude": -1.72349403589645, "postcode": "B40 1PA"}, {"latitude": 53.7500943889142, "code": "LMR", "name": "Low Moor", "longitude": -1.75118904845666, "postcode": "BD12 7BD"}, {"latitude": 54.0710359712522, "code": "MCM", "name": "Morecambe", "longitude": -2.87372456084733, "postcode": "LA4 4DW"}, {"latitude": 51.6853683341024, "code": "RDT", "name": "Radlett", "longitude": -0.317989295342231, "postcode": "WD7 7AJ"}, {"latitude": 51.5684645309801, "code": "WHR", "name": "West Horndon", "longitude": 0.341550691699372, "postcode": "CM13 3TL"}, {"latitude": 50.8546484387009, "code": "BEU", "name": "Beaulieu Road", "longitude": -1.50351789798751, "postcode": "SO42 7YQ"}, {"latitude": 53.5388327147094, "code": "INC", "name": "Ince (Manchester)", "longitude": -2.61345027791676, "postcode": "WN3 4RH"}, {"latitude": 53.2088272941456, "code": "BAC", "name": "Bache", "longitude": -2.89011409155994, "postcode": "CH2 2JF"}, {"latitude": 53.4235255041231, "code": "PSC", "name": "Prescot", "longitude": -2.79915592770964, "postcode": "L34 5SY"}, {"latitude": 50.4338063187057, "code": "IVY", "name": "Ivybridge", "longitude": -3.68769032178595, "postcode": "TQ9 5JR"}, {"latitude": 55.9168539642403, "code": "BRN", "name": "Bearsden", "longitude": -4.33262844307091, "postcode": "G61 4AN"}, {"latitude": 50.8299296460943, "code": "FOD", "name": "Ford", "longitude": -0.57816653065286, "postcode": "BN18 0BH"}, {"latitude": 51.034016434715, "code": "GIL", "name": "Gillingham (Dorset)", "longitude": -2.27347955865255, "postcode": "SP8 4PZ"}, {"latitude": 51.2477627515188, "code": "BTO", "name": "Betchworth", "longitude": -0.266802722076846, "postcode": "RH3 7BZ"}, {"latitude": 52.5454703723037, "code": "PHG", "name": "Penhelig", "longitude": -4.03532558644063, "postcode": "LL35 0PS"}, {"latitude": 54.2402070708133, "code": "SEM", "name": "Seamer", "longitude": -0.418048118770194, "postcode": "YO12 4UB"}, {"latitude": 52.4001952930014, "code": "COV", "name": "Coventry", "longitude": -1.51374583429489, "postcode": "CV3 6HF"}, {"latitude": 54.5587538760957, "code": "TBY", "name": "Thornaby", "longitude": -1.30058587974595, "postcode": "TS17 6AN"}, {"latitude": 54.8843023255366, "code": "WRL", "name": "Wetheral", "longitude": -2.83292332235635, "postcode": "CA4 8JP"}, {"latitude": 52.7551594820795, "code": "RGT", "name": "Rugeley Town", "longitude": -1.93434944474417, "postcode": "WS15 1BL"}, {"latitude": 52.5630767211176, "code": "BSC", "name": "Bescot Stadium", "longitude": -1.99103195882299, "postcode": "WS1 4NH"}, {"latitude": 52.6194602109838, "code": "BDA", "name": "Brundall", "longitude": 1.43934151491848, "postcode": "NR13 5PJ"}, {"latitude": 56.8884384501357, "code": "TUL", "name": "Tulloch", "longitude": -4.68334761683973, "postcode": "PH31 4AR"}, {"latitude": 51.1264703484913, "code": "EGR", "name": "East Grinstead", "longitude": -0.0174056861162045, "postcode": "RH19 1EB"}, {"latitude": 51.2656898608243, "code": "CLA", "name": "Clandon", "longitude": -0.500962610385828, "postcode": "GU4 7UB"}, {"latitude": 51.538090716753, "code": "LLR", "name": "Llanharan", "longitude": -3.44098219896765, "postcode": "CF72 9QA"}, {"latitude": 51.4273509527533, "code": "SYD", "name": "Sydenham (London)", "longitude": -0.0551314106605489, "postcode": "SE26 4LE"}, {"latitude": 56.8880504498643, "code": "RYB", "name": "Roy Bridge", "longitude": -4.83671010184938, "postcode": "PH31 4AG"}, {"latitude": 51.7870662704228, "code": "SKM", "name": "Stoke Mandeville", "longitude": -0.784903286622817, "postcode": "HP22 5UH"}, {"latitude": 56.5011589829333, "code": "CAN", "name": "Carnoustie", "longitude": -2.7067417618815, "postcode": "DD7 6AR"}, {"latitude": 51.3452201390596, "code": "BOA", "name": "Bradford-on-Avon", "longitude": -2.25313263192323, "postcode": "BA15 1DQ"}, {"latitude": 51.4939972388281, "code": "EPH", "name": "Elephant & Castle", "longitude": -0.0985395422679301, "postcode": "SE17 1LB"}, {"latitude": 53.9572378898862, "code": "PNL", "name": "Pannal", "longitude": -1.53355544791055, "postcode": "HG3 1JL"}, {"code": "BKN", "name": "Birkenhead North", "postcode": "CH41 7AY"}, {"latitude": 54.4602013411464, "code": "LHM", "name": "Lealholm", "longitude": -0.825325413617855, "postcode": "YO21 2AG"}, {"latitude": 51.3969045470604, "code": "BRY", "name": "Barry", "longitude": -3.28485889933605, "postcode": "CF62 7AE"}, {"latitude": 52.4367482708068, "code": "HLG", "name": "Hall Green", "longitude": -1.84519563082842, "postcode": "B28 8JX"}, {"code": "WCX", "name": "Wembley Stadium", "postcode": "HA9 6NY"}, {"latitude": 50.4026356293554, "code": "SBV", "name": "St Budeaux Victoria Road", "longitude": -4.18792523970868, "postcode": "PL5 1NB"}, {"latitude": 53.1846841270507, "code": "HWD", "name": "Hawarden", "longitude": -3.03248398190764, "postcode": "CH5 3EG"}, {"latitude": 53.646405968614, "code": "MEC", "name": "Meols Cop", "longitude": -2.97517190924337, "postcode": "PR9 7DD"}, {"code": "HDB", "name": "Haydon Bridge", "postcode": "NE47 6LN"}, {"latitude": 52.2791956710349, "code": "KNE", "name": "Kennett", "longitude": 0.491716422330354, "postcode": "CB8 7QF"}, {"latitude": 50.422758680896, "code": "SKN", "name": "St Keyne Wishing Well Halt", "longitude": -4.46433673026788, "postcode": "PL14 4SH"}, {"latitude": 53.4722833686035, "code": "FRF", "name": "Fairfield", "longitude": -2.14651678639641, "postcode": "M34 5QA"}, {"latitude": 50.9440331565263, "code": "SHE", "name": "Sherborne", "longitude": -2.51305950727013, "postcode": "DT9 3NB"}, {"latitude": 51.4360814751273, "code": "PEN", "name": "Penarth", "longitude": -3.17533812289138, "postcode": "CF64 3EB"}, {"latitude": 55.8820168310162, "code": "SPR", "name": "Springburn", "longitude": -4.2299159302931, "postcode": "G21 4TP"}, {"latitude": 53.6765772105254, "code": "GOX", "name": "Goxhill", "longitude": -0.33851826877648, "postcode": "DN19 7HL"}, {"code": "GNB", "name": "Gainsborough Central", "postcode": "DN21 2EX"}, {"latitude": 56.3041193049918, "code": "AUI", "name": "Ardlui", "longitude": -4.72051792465188, "postcode": "G83 7EB"}, {"latitude": 51.5451331626952, "code": "BSY", "name": "Brondesbury", "longitude": -0.202035940333503, "postcode": "NW6 7QB"}, {"latitude": 50.6858742675136, "code": "TOP", "name": "Topsham", "longitude": -3.46476645997187, "postcode": "EX3 0DS"}, {"latitude": 52.9206905463276, "code": "BEE", "name": "Beeston", "longitude": -1.20875983034832, "postcode": "NG9 1JH"}, {"latitude": 50.8365575619974, "code": "LRB", "name": "London Road (Brighton)", "longitude": -0.136194023784558, "postcode": "BN1 4QS"}, {"latitude": 58.0111674635185, "code": "LRG", "name": "Lairg", "longitude": -4.39723070508721, "postcode": "IV27 4DH"}, {"latitude": 51.4972162461392, "code": "ZCW", "name": "Canada Water", "longitude": -0.0390050575067589, "postcode": "SE16 6QE"}, {"latitude": 52.1937284708154, "code": "CBG", "name": "Cambridge", "longitude": 0.137191559796794, "postcode": "CB1 2JW"}, {"latitude": 53.7335184488653, "code": "CYT", "name": "Cherry Tree", "longitude": -2.51873578409895, "postcode": "BB2 4SH"}, {"latitude": 56.8734820959172, "code": "LCL", "name": "Lochailort", "longitude": -5.66890250341862, "postcode": "PH38 4LZ"}, {"latitude": 55.8762465471361, "code": "WMS", "name": "Wemyss Bay", "longitude": -4.88883251365692, "postcode": "PA18 6AR"}, {"code": "WFN", "name": "Watford North", "postcode": "WD2 4QN"}, {"latitude": 52.8634063002784, "code": "EMD", "name": "East Midlands Parkway", "longitude": -1.25274465859126, "postcode": "NG11 0EE"}, {"latitude": 51.9802761866995, "code": "NWE", "name": "Newport (Essex)", "longitude": 0.214927643465183, "postcode": "CB11 3RN"}, {"latitude": 51.6933415079476, "code": "BGD", "name": "Bargoed", "longitude": -3.23018546603998, "postcode": "CF81 9AL"}, {"latitude": 51.4750374225468, "code": "ISL", "name": "Isleworth", "longitude": -0.337328761374912, "postcode": "TW7 4BY"}, {"latitude": 53.2569557384272, "code": "LLF", "name": "Llanfairfechan", "longitude": -3.98504690844454, "postcode": "LL33 0BP"}, {"latitude": 51.2463755411911, "code": "AHT", "name": "Aldershot", "longitude": -0.760104591497095, "postcode": "GU11 1HN"}, {"latitude": 51.4086002551499, "code": "BMN", "name": "Bromley North", "longitude": 0.0182988544143894, "postcode": "BR1 3JH"}, {"latitude": 52.4421806520619, "code": "SLY", "name": "Selly Oak", "longitude": -1.93485790937827, "postcode": "B29 6DP"}, {"code": "CWH", "name": "Crews Hill", "postcode": "EN2 9EA"}, {"latitude": 51.667897427145, "code": "CFO", "name": "Chalfont & Latimer", "longitude": -0.560981329669667, "postcode": "HP7 9PR"}, {"latitude": 55.8903671581568, "code": "PPK", "name": "Possilpark and Parkhouse", "longitude": -4.25697498223286, "postcode": "G22 6LW"}, {"latitude": 51.4913188717161, "code": "GUN", "name": "Gunnersbury", "longitude": -0.274824561616675, "postcode": "W4 4DD"}, {"latitude": 51.6582281959121, "code": "MRB", "name": "Manorbier", "longitude": -4.79382343345019, "postcode": "SA70 7SN"}, {"latitude": 51.8671286107872, "code": "AUW", "name": "Ascott-under-Wychwood", "longitude": -1.56479554901016, "postcode": "OX7 6AJ"}, {"latitude": 51.3309600736077, "code": "RHM", "name": "Reedham (Surrey)", "longitude": -0.124211799483034, "postcode": "CR8 4DG"}, {"latitude": 51.4189172416975, "code": "NLS", "name": "Nailsea and Backwell", "longitude": -2.75051112210314, "postcode": "BS48 3LE"}, {"latitude": 51.4722190642643, "code": "BNI", "name": "Barnes Bridge", "longitude": -0.252362956766455, "postcode": "SW13 0AQ"}, {"latitude": 51.9769298158394, "code": "TRM", "name": "Trimley", "longitude": 1.31921666931163, "postcode": "IP11 0UB"}, {"code": "MER", "name": "Merthyr Tydfil", "postcode": "CF47 8DH"}, {"latitude": 51.5412211125642, "code": "YAE", "name": "Yate", "longitude": -2.43104265939122, "postcode": "BS37 5HZ"}, {"latitude": 51.4453625298653, "code": "CFB", "name": "Catford Bridge", "longitude": -0.0244332792554976, "postcode": "SE6 4PZ"}, {"latitude": 56.0567316210111, "code": "NBW", "name": "North Berwick", "longitude": -2.72962824749524, "postcode": "EH39 4DA"}, {"latitude": 51.4039173195368, "code": "BIK", "name": "Birkbeck", "longitude": -0.0568446659294651, "postcode": "SE20 7YA"}, {"latitude": 53.4846398163266, "code": "PAT", "name": "Patricroft", "longitude": -2.35687243212474, "postcode": "M30 0UR"}, {"latitude": 53.4043660477337, "code": "LVC", "name": "Liverpool Central", "longitude": -2.97955424663683, "postcode": "L1 1JT"},